,url,id,region,province,locality,zip_code,Longitude,Latitude,property_type,property_subtype,price,number_rooms,living_area,kitchen,furnished,fireplace,terrace,terrace_area,garden,garden_area,surface_land,number_facades,swimming_pool,building_state,energy_type,EPC_score,EnergyConsumptionPerSqm,parking_outdoor,parking_indoor,province1,region1,price_per_sqm
0,https://www.immoweb.be/en/classified/apartment/for-sale/auderghem/1160/11058070,11058070.0,Brussels,Brussels,Auderghem,1160,4.4167658,50.8129789,APARTMENT,APARTMENT,265000.0,2.0,75.0,HYPER_EQUIPPED,0.0,None,1,19.0,0,0.0,Nan,2,False,TO_RENOVATE,GAS,D,194,None,None,Brussels,Bruxelles,3533.33
1,https://www.immoweb.be/en/classified/apartment/for-sale/uccle/1180/11045524,11045524.0,Brussels,Brussels,Uccle,1180,4.3330878,50.8031458,APARTMENT,APARTMENT,265000.0,2.0,81.0,INSTALLED,0.0,None,0,0.0,0,0.0,Nan,3,False,TO_BE_DONE_UP,GAS,F,340,None,None,Brussels,Bruxelles,3271.6
2,https://www.immoweb.be/en/classified/apartment/for-sale/flemalle-grande/4400/11060241,11060241.0,Wallonie,Liège,Flémalle-Grande,4400,5.4803756,50.6054331,APARTMENT,APARTMENT,265000.0,2.0,220.0,NOT_INSTALLED,,-1.0,1,16.0,0,0.0,Nan,2,None,TO_RESTORE,FUELOIL,F,478,None,2.0,Liège,Wallonie,1204.55
3,https://www.immoweb.be/en/classified/apartment/for-sale/blankenberge/8370/10957348,10957348.0,Flanders,West Flanders,BLANKENBERGE,8370,3.1338828,51.3172958,APARTMENT,APARTMENT,265000.0,2.0,73.0,INSTALLED,,None,0,0.0,0,0.0,Nan,2,None,GOOD,GAS,A,91,None,None,West Flanders,Flanders,3630.14
4,https://www.immoweb.be/en/classified/apartment/for-sale/anderlecht/1070/11090289,11090289.0,Brussels,Brussels,ANDERLECHT,1070,4.293787,50.8462939,APARTMENT,APARTMENT,269000.0,3.0,115.0,SEMI_EQUIPPED,,1.0,1,8.0,0,0.0,Nan,2,None,GOOD,GAS,D,184,None,None,Brussels,Bruxelles,2339.13
5,https://www.immoweb.be/en/classified/apartment/for-sale/evere/1140/11130759,11130759.0,Brussels,Brussels,Evere,1140,4.4102036,50.861471,APARTMENT,APARTMENT,269000.0,2.0,84.0,USA_HYPER_EQUIPPED,0.0,None,1,6.0,0,0.0,0,2,False,AS_NEW,ELECTRIC,F,343,None,1.0,Brussels,Bruxelles,3202.38
6,https://www.immoweb.be/en/classified/apartment/for-sale/wavre/1300/11129211,11129211.0,Wallonie,Walloon Brabant,Wavre,1300,4.6153455,50.7079983,APARTMENT,APARTMENT,269000.0,2.0,100.0,INSTALLED,,-1.0,1,6.0,0,0.0,0,2,None,GOOD,GAS,B,140,None,2.0,Walloon Brabant,Wallonie,2690.0
7,https://www.immoweb.be/en/classified/apartment/for-sale/gooik/1755/11127025,11127025.0,Flanders,Flemish Brabant,GOOIK,1755,4.112889,50.7939431,APARTMENT,APARTMENT,269000.0,2.0,119.0,INSTALLED,,None,0,0.0,0,0.0,Nan,2,None,JUST_RENOVATED,GAS,B,180,None,1.0,Flemish Brabant,Flanders,2260.5
8,https://www.immoweb.be/en/classified/apartment/for-sale/liege/4000/10832282,10832282.0,Wallonie,Liège,LIÈGE,4000,5.5715443,50.6355355,APARTMENT,APARTMENT,269000.0,2.0,160.0,NOT_INSTALLED,,None,0,0.0,0,0.0,Nan,2,None,TO_BE_DONE_UP,FUELOIL,C,172,None,None,Liège,Wallonie,1681.25
9,https://www.immoweb.be/en/classified/apartment/for-sale/anderlecht/1070/10906110,10906110.0,Brussels,Brussels,Anderlecht,1070,4.2928796,50.8169485,APARTMENT,APARTMENT,270000.0,3.0,102.0,INSTALLED,0.0,None,1,8.0,0,0.0,0,2,False,GOOD,GAS,G,475,None,None,Brussels,Bruxelles,2647.06
10,https://www.immoweb.be/en/classified/apartment/for-sale/lubbeek/3210/10979572,10979572.0,Flanders,Flemish Brabant,LUBBEEK,3210,4.8412255,50.8819375,APARTMENT,APARTMENT,270000.0,3.0,142.0,INSTALLED,,None,0,0.0,0,0.0,Nan,3,None,GOOD,GAS,B,190,None,None,Flemish Brabant,Flanders,1901.41
11,https://www.immoweb.be/en/classified/house/for-sale/dadizele/8890/11174434,11174434.0,Flanders,West Flanders,Dadizele,8890,3.0950742,50.8517062,HOUSE,HOUSE,199000.0,1.0,139.0,unknown,,None,0,0.0,1,7.0,95,2,None,GOOD,GAS,D,387,None,None,West Flanders,Flanders,1431.65
12,https://www.immoweb.be/en/classified/apartment/for-sale/knokke-heist/8300/11174433,11174433.0,Flanders,West Flanders,Knokke-Heist,8300,None,None,APARTMENT,APARTMENT,385000.0,1.0,52.0,unknown,,None,0,0.0,0,0.0,Nan,2,None,GOOD,GAS,C,238,None,None,West Flanders,Flanders,7403.85
13,https://www.immoweb.be/en/classified/mansion/for-sale/wichelen/9260/11174432,11174432.0,Flanders,East Flanders,Wichelen,9260,3.9866018,51.0027474,HOUSE,MANSION,549000.0,3.0,370.0,unknown,,1.0,1,0.0,1,835.0,1163,3,None,unknown,FUELOIL,D,366,2.0,1.0,East Flanders,Flanders,1483.78
14,https://www.immoweb.be/en/classified/house/for-sale/impe/9340/11174431,11174431.0,Flanders,East Flanders,Impe,9340,3.9444213,50.9586427,HOUSE,HOUSE,379000.0,3.0,161.0,unknown,,1.0,0,0.0,1,200.0,500,3,None,GOOD,GAS,B,200,3.0,None,East Flanders,Flanders,2354.04
15,https://www.immoweb.be/en/classified/house/for-sale/lendelede/8860/11174430,11174430.0,Flanders,West Flanders,Lendelede,8860,3.2452348,50.8929026,HOUSE,HOUSE,149000.0,3.0,136.0,unknown,,None,1,0.0,0,0.0,199,4,None,GOOD,unknown,C,229,None,1.0,West Flanders,Flanders,1095.59
16,https://www.immoweb.be/en/classified/apartment/for-sale/bredene/8450/11174427,11174427.0,Flanders,West Flanders,Bredene,8450,2.9503284,51.2426898,APARTMENT,APARTMENT,365000.0,3.0,104.0,unknown,,None,1,0.0,0,0.0,Nan,2,None,GOOD,GAS,B,123,None,1.0,West Flanders,Flanders,3509.62
17,https://www.immoweb.be/en/classified/apartment/for-sale/oostende/8400/11174426,11174426.0,Flanders,West Flanders,Oostende,8400,2.920417,51.2342581,APARTMENT,APARTMENT,179000.0,1.0,59.0,unknown,,None,0,0.0,0,0.0,Nan,2,None,GOOD,GAS,B,154,None,None,West Flanders,Flanders,3033.9
18,https://www.immoweb.be/en/classified/house/for-sale/ingelmunster/8770/11174418,11174418.0,Flanders,West Flanders,Ingelmunster,8770,3.2381419,50.9343127,HOUSE,HOUSE,195000.0,2.0,108.0,unknown,,None,0,0.0,0,0.0,642,2,None,GOOD,unknown,F,510,None,None,West Flanders,Flanders,1805.56
19,https://www.immoweb.be/en/classified/house/for-sale/tintigny/6730/11174417,11174417.0,Wallonie,Luxembourg,Tintigny,6730,5.5132407,49.6804171,HOUSE,HOUSE,285000.0,3.0,340.0,unknown,0.0,None,0,0.0,0,0.0,342,3,False,unknown,PELLET,B,153,None,1.0,Luxembourg,Wallonie,838.24
20,https://www.immoweb.be/en/classified/mixed-use-building/for-sale/herstal/4040/11174405,11174405.0,Wallonie,Liège,Herstal,4040,5.6289247,50.6666734,HOUSE,MIXED_USE_BUILDING,450000.0,2.0,729.0,INSTALLED,,None,1,0.0,1,101.0,402,2,False,GOOD,GAS,B,128,None,None,Liège,Wallonie,617.28
21,https://www.immoweb.be/en/classified/apartment/for-sale/koekelberg/1081/11174404,11174404.0,Brussels,Brussels,Koekelberg,1081,4.310036,50.8651807,APARTMENT,APARTMENT,199000.0,2.0,84.0,SEMI_EQUIPPED,0.0,None,1,8.0,0,0.0,0,2,False,TO_BE_DONE_UP,GAS,D,185,None,None,Brussels,Bruxelles,2369.05
22,https://www.immoweb.be/en/classified/apartment/for-sale/blankenberge/8370/11174403,11174403.0,Flanders,West Flanders,BLANKENBERGE,8370,None,None,APARTMENT,APARTMENT,359000.0,2.0,75.0,INSTALLED,,None,1,0.0,0,0.0,Nan,2,None,GOOD,GAS,A,95,None,1.0,West Flanders,Flanders,4786.67
23,https://www.immoweb.be/en/classified/house/for-sale/vedrin/5020/11174395,11174395.0,Wallonie,Namur,VEDRIN,5020,4.8718858,50.4901932,HOUSE,HOUSE,150000.0,2.0,158.0,unknown,,None,0,0.0,0,0.0,162,3,None,unknown,unknown,E,416,1.0,1.0,Namur,Wallonie,949.37
24,https://www.immoweb.be/en/classified/apartment/for-sale/li%C3%A8ge/4020/11174385,11174385.0,Wallonie,Liège,Liège,4020,5.5938267,50.6469668,APARTMENT,APARTMENT,165000.0,2.0,85.0,unknown,0.0,None,1,0.0,0,0.0,Nan,2,None,TO_BE_DONE_UP,GAS,C,215,None,None,Liège,Wallonie,1941.18
25,https://www.immoweb.be/en/classified/apartment/for-sale/antwerp/2018/11159048,11159048.0,Flanders,Antwerp,Antwerp,2018,4.4190349,51.2122711,APARTMENT,APARTMENT,279900.0,2.0,73.0,INSTALLED,0.0,None,0,0.0,0,0.0,Nan,2,False,GOOD,GAS,B,184,None,None,Antwerpen,Flanders,3834.25
26,https://www.immoweb.be/en/classified/apartment/for-sale/broechem/2520/11161101,11161101.0,Flanders,Antwerp,BROECHEM,2520,4.5965895,51.1816969,APARTMENT,APARTMENT,320000.0,2.0,120.0,INSTALLED,,-1.0,1,5.0,0,0.0,0,3,None,GOOD,GAS,B,119,None,1.0,Antwerpen,Flanders,2666.67
27,https://www.immoweb.be/en/classified/apartment/for-sale/gent/9000/10924015,10924015.0,Flanders,East Flanders,Gent,9000,3.6945428,51.0700083,APARTMENT,APARTMENT,327000.0,2.0,102.0,INSTALLED,1.0,-1.0,1,7.0,0,0.0,0,2,None,GOOD,GAS,A,89,None,1.0,East Flanders,Flanders,3205.88
28,https://www.immoweb.be/en/classified/flat-studio/for-sale/antwerp/2018/11166133,11166133.0,Flanders,Antwerp,Antwerp,2018,4.4190349,51.2122711,APARTMENT,FLAT_STUDIO,147900.0,0.0,34.0,INSTALLED,0.0,None,0,0.0,0,0.0,Nan,2,False,GOOD,ELECTRIC,F,590,None,None,Antwerpen,Flanders,4350.0
29,https://www.immoweb.be/en/classified/duplex/for-sale/molenbeek-saint-jean/1080/11167345,11167345.0,Brussels,Brussels,Molenbeek-Saint-Jean,1080,4.3300461,50.8534546,APARTMENT,DUPLEX,220000.0,3.0,109.0,SEMI_EQUIPPED,0.0,None,0,0.0,0,0.0,0,2,False,TO_RENOVATE,GAS,G,480,None,None,Brussels,Bruxelles,2018.35
30,https://www.immoweb.be/en/classified/apartment/for-sale/schaerbeek/1030/11166471,11166471.0,Brussels,Brussels,Schaerbeek,1030,4.4062194,50.8557946,APARTMENT,APARTMENT,235000.0,1.0,60.0,USA_HYPER_EQUIPPED,0.0,None,1,4.0,0,0.0,Nan,2,False,GOOD,GAS,D,196,None,None,Brussels,Bruxelles,3916.67
31,https://www.immoweb.be/en/classified/apartment/for-sale/evere/1140/11167948,11167948.0,Brussels,Brussels,Evere,1140,4.4029827,50.8659475,APARTMENT,APARTMENT,299500.0,1.0,62.0,HYPER_EQUIPPED,0.0,None,1,8.0,0,0.0,Nan,2,False,AS_NEW,GAS,C,98,1.0,None,Brussels,Bruxelles,4830.65
32,https://www.immoweb.be/en/classified/service-flat/for-sale/gent/9000/11166210,11166210.0,Flanders,East Flanders,Gent,9000,3.7178208,51.0539067,APARTMENT,SERVICE_FLAT,375000.0,2.0,86.0,USA_HYPER_EQUIPPED,0.0,None,0,0.0,0,0.0,0,2,False,AS_NEW,GAS,B,109,None,None,East Flanders,Flanders,4360.47
33,https://www.immoweb.be/en/classified/penthouse/for-sale/uccle/1180/11155103,11155103.0,Brussels,Brussels,Uccle,1180,4.3523223,50.8026478,APARTMENT,PENTHOUSE,1295000.0,3.0,179.0,USA_HYPER_EQUIPPED,0.0,None,1,36.0,0,0.0,Nan,4,False,AS_NEW,GAS,C,96,2.0,None,Brussels,Bruxelles,7234.64
34,https://www.immoweb.be/en/classified/penthouse/for-sale/uccle/1180/11154663,11154663.0,Brussels,Brussels,Uccle,1180,4.3523223,50.8026478,APARTMENT,PENTHOUSE,1295000.0,3.0,179.0,USA_HYPER_EQUIPPED,0.0,None,1,36.0,0,0.0,Nan,4,False,AS_NEW,GAS,C,96,2.0,None,Brussels,Bruxelles,7234.64
35,https://www.immoweb.be/en/classified/apartment/for-sale/gembloux/5030/11158233,11158233.0,Wallonie,Namur,Gembloux,5030,4.6965612,50.5590667,APARTMENT,APARTMENT,280000.0,2.0,77.0,INSTALLED,,-1.0,1,8.0,1,0.0,Nan,4,None,AS_NEW,GAS,B,94,None,1.0,Namur,Wallonie,3636.36
36,https://www.immoweb.be/en/classified/apartment/for-sale/bonheiden/2820/11157252,11157252.0,Flanders,Antwerp,BONHEIDEN,2820,4.5537964,51.0366155,APARTMENT,APARTMENT,325000.0,2.0,76.0,INSTALLED,,None,1,0.0,0,0.0,Nan,3,None,GOOD,GAS,A,53,None,1.0,Antwerpen,Flanders,4276.32
37,https://www.immoweb.be/en/classified/duplex/for-sale/gent/9000/11157577,11157577.0,Flanders,East Flanders,Gent,9000,3.7302065,51.0559757,APARTMENT,DUPLEX,425000.0,2.0,150.0,SEMI_EQUIPPED,,-1.0,0,0.0,0,0.0,0,2,None,GOOD,GAS,B,143,None,1.0,East Flanders,Flanders,2833.33
38,https://www.immoweb.be/en/classified/apartment/for-sale/knokke-heist/8300/11156677,11156677.0,Flanders,West Flanders,Knokke-Heist,8300,3.2854853,51.3491379,APARTMENT,APARTMENT,445000.0,2.0,75.0,HYPER_EQUIPPED,1.0,None,0,0.0,0,0.0,Nan,2,False,JUST_RENOVATED,GAS,C,227,1.0,1.0,West Flanders,Flanders,5933.33
39,https://www.immoweb.be/en/classified/flat-studio/for-sale/ixelles/1050/11164429,11164429.0,Brussels,Brussels,Ixelles,1050,4.3911561,50.8199474,APARTMENT,FLAT_STUDIO,208340.0,0.0,35.0,unknown,1.0,None,0,0.0,0,0.0,Nan,2,False,AS_NEW,GAS,B,50,None,None,Brussels,Bruxelles,5952.57
40,https://www.immoweb.be/en/classified/apartment/for-sale/gavere/9890/11164647,11164647.0,Flanders,East Flanders,Gavere,9890,3.679605,50.9284071,APARTMENT,APARTMENT,279200.0,1.0,76.0,HYPER_EQUIPPED,0.0,None,1,11.0,0,0.0,0,4,False,AS_NEW,GAS,Nan,Nan,1.0,1.0,East Flanders,Flanders,3673.68
41,https://www.immoweb.be/en/classified/apartment/for-sale/saint-gilles/1060/11165830,11165830.0,Brussels,Brussels,Saint-Gilles,1060,4.3432517,50.8279747,APARTMENT,APARTMENT,190000.0,1.0,64.0,INSTALLED,0.0,None,0,0.0,0,0.0,Nan,2,False,GOOD,GAS,G,656,None,None,Brussels,Bruxelles,2968.75
42,https://www.immoweb.be/en/classified/flat-studio/for-sale/uccle/1180/11165715,11165715.0,Brussels,Brussels,Uccle,1180,4.378999,50.7832635,APARTMENT,FLAT_STUDIO,190000.0,1.0,30.0,INSTALLED,1.0,None,0,0.0,0,0.0,Nan,2,False,AS_NEW,ELECTRIC,G,417,None,None,Brussels,Bruxelles,6333.33
43,https://www.immoweb.be/en/classified/house/for-sale/deerlijk/8540/11174996,11174996.0,Flanders,West Flanders,Deerlijk,8540,3.3809254,50.8607921,HOUSE,HOUSE,199000.0,5.0,193.0,unknown,,None,1,0.0,0,0.0,360,3,None,TO_RESTORE,GAS,D,367,1.0,1.0,West Flanders,Flanders,1031.09
44,https://www.immoweb.be/en/classified/house/for-sale/dentergem/8720/11174990,11174990.0,Flanders,West Flanders,Dentergem,8720,3.4300721,50.934792,HOUSE,HOUSE,269000.0,3.0,298.0,unknown,0.0,None,0,0.0,0,0.0,463,2,False,unknown,FUELOIL,E,419,None,1.0,West Flanders,Flanders,902.68
45,https://www.immoweb.be/en/classified/apartment/for-sale/blankenberge/8370/11174989,11174989.0,Flanders,West Flanders,Blankenberge,8370,3.1397019,51.3155533,APARTMENT,APARTMENT,239000.0,2.0,84.0,unknown,,None,0,0.0,0,0.0,Nan,2,None,GOOD,GAS,B,124,None,1.0,West Flanders,Flanders,2845.24
46,https://www.immoweb.be/en/classified/ground-floor/for-sale/nivelles/1400/11174985,11174985.0,Wallonie,Walloon Brabant,Nivelles,1400,4.3118167,50.5889782,APARTMENT,GROUND_FLOOR,140000.0,1.0,56.0,unknown,0.0,None,1,0.0,0,0.0,0,2,False,TO_BE_DONE_UP,GAS,D,302,None,None,Walloon Brabant,Wallonie,2500.0
47,https://www.immoweb.be/en/classified/apartment/for-sale/saint-gilles/1060/11084536,11084536.0,Brussels,Brussels,Saint-Gilles,1060,4.3406466,50.8256372,APARTMENT,APARTMENT,225000.0,3.0,80.0,unknown,0.0,None,0,0.0,0,0.0,0,2,False,TO_BE_DONE_UP,ELECTRIC,G,403,None,None,Brussels,Bruxelles,2812.5
48,https://www.immoweb.be/en/classified/house/for-sale/petit-roeulx-lez-braine/7090/11174984,11174984.0,Wallonie,Hainaut,PETIT-ROEULX-LEZ-BRAINE,7090,None,None,HOUSE,HOUSE,295000.0,4.0,140.0,INSTALLED,,1.0,1,25.0,1,150.0,203,2,None,JUST_RENOVATED,ELECTRIC,C,204,None,1.0,Hainaut,Wallonie,2107.14
49,https://www.immoweb.be/en/classified/house/for-sale/boom/2850/11174978,11174978.0,Flanders,Antwerp,Boom,2850,4.3728429,51.0937304,HOUSE,HOUSE,459000.0,3.0,222.0,INSTALLED,,1.0,1,10.0,1,125.0,225,2,None,GOOD,GAS,C,299,1.0,3.0,Antwerpen,Flanders,2067.57
50,https://www.immoweb.be/en/classified/house/for-sale/jauchelette/1370/11174976,11174976.0,Wallonie,Walloon Brabant,Jauchelette,1370,4.8417429,50.6872784,HOUSE,HOUSE,549000.0,4.0,282.0,INSTALLED,0.0,None,1,122.0,1,1353.0,1512,4,True,GOOD,GAS,D,257,4.0,1.0,Walloon Brabant,Wallonie,1946.81
51,https://www.immoweb.be/en/classified/house/for-sale/tournai/7500/11174974,11174974.0,Wallonie,Hainaut,Tournai,7500,None,None,HOUSE,HOUSE,130000.0,1.0,76.0,SEMI_EQUIPPED,0.0,None,0,0.0,1,140.0,0,2,False,GOOD,unknown,E,420,None,None,Hainaut,Wallonie,1710.53
52,https://www.immoweb.be/en/classified/penthouse/for-sale/auderghem/1160/11174973,11174973.0,Brussels,Brussels,Auderghem,1160,None,None,APARTMENT,PENTHOUSE,830000.0,3.0,164.0,INSTALLED,0.0,None,1,20.0,0,0.0,Nan,2,None,AS_NEW,GAS,A,45,1.0,None,Brussels,Bruxelles,5060.98
53,https://www.immoweb.be/en/classified/apartment/for-sale/bruxelles/1000/11126874,11126874.0,Brussels,Brussels,BRUXELLES,1000,4.3678458,50.8418364,APARTMENT,APARTMENT,325000.0,2.0,78.0,HYPER_EQUIPPED,0.0,None,0,0.0,0,0.0,Nan,2,False,unknown,unknown,C,16778,1.0,None,Brussels,Bruxelles,4166.67
54,https://www.immoweb.be/en/classified/house/for-sale/grobbendonk/2280/11174960,11174960.0,Flanders,Antwerp,Grobbendonk,2280,4.7453147,51.1947027,HOUSE,HOUSE,365000.0,3.0,152.0,INSTALLED,,-1.0,0,0.0,1,190.0,270,3,None,GOOD,GAS,C,238,1.0,None,Antwerpen,Flanders,2401.32
55,https://www.immoweb.be/en/classified/apartment/for-sale/gent/9000/11174952,11174952.0,Flanders,East Flanders,Gent,9000,3.7247582,51.0530022,APARTMENT,APARTMENT,799000.0,2.0,157.0,HYPER_EQUIPPED,,1.0,1,25.0,0,0.0,0,2,None,unknown,GAS,B,191,None,None,East Flanders,Flanders,5089.17
56,https://www.immoweb.be/en/classified/house/for-sale/li%C3%A8ge/4000/11174948,11174948.0,Wallonie,Liège,Liège,4000,5.5468696,50.6328431,HOUSE,HOUSE,259000.0,4.0,185.0,INSTALLED,0.0,None,1,50.0,1,20.0,190,2,False,AS_NEW,GAS,D,274,None,None,Liège,Wallonie,1400.0
57,https://www.immoweb.be/en/classified/town-house/for-sale/uccle/1180/11174943,11174943.0,Brussels,Brussels,Uccle,1180,4.3423823,50.787852,HOUSE,TOWN_HOUSE,635000.0,3.0,200.0,INSTALLED,0.0,None,1,30.0,1,90.0,194,2,False,TO_BE_DONE_UP,GAS,D,199,1.0,1.0,Brussels,Bruxelles,3175.0
58,https://www.immoweb.be/en/classified/apartment/for-sale/stabroek/2940/11174938,11174938.0,Flanders,Antwerp,Stabroek,2940,4.3621074,51.3344409,APARTMENT,APARTMENT,229000.0,2.0,84.0,unknown,,None,1,4.0,0,0.0,Nan,2,None,GOOD,GAS,B,117,None,1.0,Antwerpen,Flanders,2726.19
59,https://www.immoweb.be/en/classified/apartment/for-sale/namur/5000/11174935,11174935.0,Wallonie,Namur,NAMUR,5000,None,None,APARTMENT,APARTMENT,115000.0,1.0,50.0,unknown,,None,0,0.0,0,0.0,Nan,2,None,unknown,GAS,D,319,None,None,Namur,Wallonie,2300.0
60,https://www.immoweb.be/en/classified/country-cottage/for-sale/montleban/6674/11174933,11174933.0,Wallonie,Luxembourg,Montleban,6674,5.8373312,50.1886299,HOUSE,COUNTRY_COTTAGE,350000.0,3.0,294.0,INSTALLED,,-1.0,0,0.0,0,0.0,490,4,None,unknown,WOOD,G,746,None,2.0,Luxembourg,Wallonie,1190.48
61,https://www.immoweb.be/en/classified/apartment/for-sale/dilbeek/1700/11174930,11174930.0,Flanders,Flemish Brabant,Dilbeek,1700,4.271238,50.8369816,APARTMENT,APARTMENT,269000.0,2.0,100.0,unknown,,-1.0,1,6.0,0,0.0,Nan,4,None,GOOD,GAS,C,297,1.0,1.0,Flemish Brabant,Flanders,2690.0
62,https://www.immoweb.be/en/classified/apartment/for-sale/woluwe-saint-lambert/1200/11174929,11174929.0,Brussels,Brussels,Woluwe-Saint-Lambert,1200,4.4271733,50.8511196,APARTMENT,APARTMENT,285000.0,1.0,77.0,unknown,,-1.0,1,8.0,0,0.0,Nan,4,None,GOOD,GAS,C,145,None,1.0,Brussels,Bruxelles,3701.3
63,https://www.immoweb.be/en/classified/house/for-sale/uccle/1180/11174927,11174927.0,Brussels,Brussels,Uccle,1180,4.3447238,50.7954472,HOUSE,HOUSE,695000.0,3.0,224.0,SEMI_EQUIPPED,,-1.0,1,50.0,0,0.0,0,2,None,TO_RENOVATE,unknown,G,942,1.0,None,Brussels,Bruxelles,3102.68
64,https://www.immoweb.be/en/classified/house/for-sale/moustier/5190/11174923,11174923.0,Wallonie,Namur,MOUSTIER,5190,4.6966125,50.4665118,HOUSE,HOUSE,165000.0,2.0,175.0,SEMI_EQUIPPED,,None,0,0.0,0,0.0,327,3,None,unknown,FUELOIL,Nan,Nan,None,None,Namur,Wallonie,942.86
65,https://www.immoweb.be/en/classified/house/for-sale/farciennes/6240/11174922,11174922.0,Wallonie,Hainaut,FARCIENNES,6240,4.5668623,50.4331973,HOUSE,HOUSE,310000.0,3.0,221.0,NOT_INSTALLED,,None,0,0.0,0,0.0,772,Nan,None,unknown,GAS,Nan,Nan,None,None,Hainaut,Wallonie,1402.71
66,https://www.immoweb.be/en/classified/house/for-sale/kortemark/8610/11174921,11174921.0,Flanders,West Flanders,KORTEMARK,8610,3.0205339,51.0556253,HOUSE,HOUSE,359000.0,3.0,164.0,INSTALLED,,None,1,0.0,0,0.0,0,4,None,GOOD,GAS,A,87,2.0,1.0,West Flanders,Flanders,2189.02
67,https://www.immoweb.be/en/classified/apartment/for-sale/liege/4020/11074792,11074792.0,Wallonie,Liège,Liège,4020,5.574847,50.6339148,APARTMENT,APARTMENT,549000.0,3.0,168.0,HYPER_EQUIPPED,0.0,None,1,7.0,0,0.0,Nan,3,False,AS_NEW,GAS,C,191,1.0,1.0,Liège,Wallonie,3267.86
68,https://www.immoweb.be/en/classified/apartment/for-sale/woluwe-saint-lambert/1200/10920137,10920137.0,Brussels,Brussels,Woluwe-Saint-Lambert,1200,4.4306675,50.8550588,APARTMENT,APARTMENT,550000.0,3.0,135.0,HYPER_EQUIPPED,0.0,None,1,14.0,0,0.0,Nan,2,False,AS_NEW,GAS,C,104,None,1.0,Brussels,Bruxelles,4074.07
69,https://www.immoweb.be/en/classified/apartment/for-sale/uccle/1180/11018787,11018787.0,Brussels,Brussels,UCCLE,1180,4.3528952,50.7937575,APARTMENT,APARTMENT,574000.0,3.0,133.0,INSTALLED,,None,1,15.0,0,0.0,Nan,2,None,GOOD,GAS,D,182,None,1.0,Brussels,Bruxelles,4315.79
70,https://www.immoweb.be/en/classified/duplex/for-sale/antwerp/2000/10949203,10949203.0,Flanders,Antwerp,Antwerp,2000,4.3997681,51.2245874,APARTMENT,DUPLEX,575000.0,2.0,155.0,USA_HYPER_EQUIPPED,,None,0,0.0,0,0.0,0,2,None,GOOD,GAS,C,203,None,None,Antwerpen,Flanders,3709.68
71,https://www.immoweb.be/en/classified/apartment/for-sale/ixelles/1050/11049205,11049205.0,Brussels,Brussels,Ixelles,1050,4.3569046,50.8188447,APARTMENT,APARTMENT,585000.0,2.0,136.0,INSTALLED,,-1.0,1,14.0,0,0.0,Nan,2,None,AS_NEW,GAS,B,93,None,1.0,Brussels,Bruxelles,4301.47
72,https://www.immoweb.be/en/classified/apartment/for-sale/woluwe-saint-pierre/1150/11080014,11080014.0,Brussels,Brussels,Woluwe-Saint-Pierre,1150,4.4667473,50.8415776,APARTMENT,APARTMENT,595000.0,2.0,115.0,INSTALLED,0.0,None,1,12.0,0,0.0,Nan,3,False,TO_BE_DONE_UP,GAS,C,148,None,None,Brussels,Bruxelles,5173.91
73,https://www.immoweb.be/en/classified/triplex/for-sale/wezembeek-oppem/1970/10333352,10333352.0,Flanders,Flemish Brabant,Wezembeek-Oppem,1970,4.4848799,50.8454226,APARTMENT,TRIPLEX,595000.0,3.0,170.0,USA_HYPER_EQUIPPED,0.0,None,1,9.0,0,0.0,Nan,2,False,AS_NEW,GAS,B,119,1.0,None,Flemish Brabant,Flanders,3500.0
74,https://www.immoweb.be/en/classified/penthouse/for-sale/woluwe-saint-pierre/1150/10828444,10828444.0,Brussels,Brussels,Woluwe-Saint-Pierre,1150,4.4200755,50.8374183,APARTMENT,PENTHOUSE,599000.0,3.0,180.0,INSTALLED,0.0,None,1,10.0,0,0.0,Nan,2,False,GOOD,GAS,E,257,None,None,Brussels,Bruxelles,3327.78
75,https://www.immoweb.be/en/classified/apartment/for-sale/uccle/1180/10997503,10997503.0,Brussels,Brussels,Uccle,1180,4.3600066,50.8098196,APARTMENT,APARTMENT,599000.0,3.0,151.0,HYPER_EQUIPPED,0.0,None,1,9.0,0,0.0,Nan,2,True,GOOD,GAS,C,143,None,1.0,Brussels,Bruxelles,3966.89
76,https://www.immoweb.be/en/classified/apartment/for-sale/antwerpen-2018/2018/11044605,11044605.0,Flanders,Antwerp,ANTWERPEN 2018,2018,4.4119653,51.2032422,APARTMENT,APARTMENT,599000.0,3.0,200.0,INSTALLED,,-1.0,1,15.0,0,0.0,0,2,None,JUST_RENOVATED,GAS,B,189,None,1.0,Antwerpen,Flanders,2995.0
77,https://www.immoweb.be/en/classified/apartment/for-sale/woluwe-saint-pierre/1150/10777420,10777420.0,Brussels,Brussels,Woluwe-Saint-Pierre,1150,4.4209226,50.8335913,APARTMENT,APARTMENT,600000.0,3.0,170.0,HYPER_EQUIPPED,0.0,None,1,22.0,0,0.0,Nan,2,False,AS_NEW,ELECTRIC,F,291,None,None,Brussels,Bruxelles,3529.41
78,https://www.immoweb.be/en/classified/apartment/for-sale/gent/9000/11083051,11083051.0,Flanders,East Flanders,Gent,9000,3.7360812,51.0525444,APARTMENT,APARTMENT,615000.0,3.0,122.0,INSTALLED,0.0,None,0,0.0,0,0.0,Nan,3,None,GOOD,GAS,B,105,None,None,East Flanders,Flanders,5040.98
79,https://www.immoweb.be/en/classified/apartment/for-sale/woluwe-saint-pierre/1150/11056690,11056690.0,Brussels,Brussels,Woluwe-Saint-Pierre,1150,4.4187618,50.8355237,APARTMENT,APARTMENT,639000.0,3.0,166.0,SEMI_EQUIPPED,0.0,None,1,28.0,0,0.0,Nan,2,False,TO_BE_DONE_UP,GAS,E,253,None,1.0,Brussels,Bruxelles,3849.4
80,https://www.immoweb.be/en/classified/penthouse/for-sale/woluwe-saint-pierre/1150/11056689,11056689.0,Brussels,Brussels,Woluwe-Saint-Pierre,1150,4.4187618,50.8355237,APARTMENT,PENTHOUSE,639000.0,3.0,166.0,SEMI_EQUIPPED,0.0,None,1,28.0,0,0.0,Nan,2,False,TO_BE_DONE_UP,GAS,E,253,None,1.0,Brussels,Bruxelles,3849.4
81,https://www.immoweb.be/en/classified/apartment/for-sale/etterbeek/1040/11079257,11079257.0,Brussels,Brussels,Etterbeek,1040,4.4023952,50.8400596,APARTMENT,APARTMENT,645000.0,3.0,172.0,INSTALLED,0.0,None,1,17.0,0,0.0,Nan,3,False,GOOD,GAS,C,130,1.0,1.0,Brussels,Bruxelles,3750.0
82,https://www.immoweb.be/en/classified/apartment/for-sale/knokke-heist/8300/11016339,11016339.0,Flanders,West Flanders,Knokke-Heist,8300,3.2891988,51.3463062,APARTMENT,APARTMENT,649000.0,2.0,85.0,HYPER_EQUIPPED,,None,1,0.0,0,0.0,0,2,None,GOOD,GAS,B,130,1.0,1.0,West Flanders,Flanders,7635.29
83,https://www.immoweb.be/en/classified/apartment/for-sale/nieuwpoort/8620/11114300,11114300.0,Flanders,West Flanders,Nieuwpoort,8620,2.7395117,51.1391005,APARTMENT,APARTMENT,649000.0,2.0,129.0,INSTALLED,0.0,None,1,6.0,0,0.0,0,2,False,GOOD,GAS,A,88,None,None,West Flanders,Flanders,5031.01
84,https://www.immoweb.be/en/classified/apartment/for-sale/bruxelles/1040/11072105,11072105.0,Brussels,Brussels,Bruxelles,1040,4.3702633,50.8435094,APARTMENT,APARTMENT,650000.0,4.0,216.0,INSTALLED,0.0,None,0,0.0,0,0.0,Nan,3,False,AS_NEW,FUELOIL,E,275,1.0,None,Brussels,Bruxelles,3009.26
85,https://www.immoweb.be/en/classified/apartment/for-sale/antwerp/2000/11173728,11173728.0,Flanders,Antwerp,Antwerp,2000,4.4001986,51.2197731,APARTMENT,APARTMENT,309000.0,2.0,60.0,INSTALLED,1.0,None,0,0.0,0,0.0,Nan,2,False,unknown,GAS,A,99,None,None,Antwerpen,Flanders,5150.0
86,https://www.immoweb.be/en/classified/apartment/for-sale/antwerp/2000/11173727,11173727.0,Flanders,Antwerp,Antwerp,2000,4.4052255,51.2262321,APARTMENT,APARTMENT,549000.0,2.0,132.0,unknown,0.0,None,1,0.0,0,0.0,0,2,None,unknown,GAS,B,198,None,3.0,Antwerpen,Flanders,4159.09
87,https://www.immoweb.be/en/classified/apartment/for-sale/antwerpen%20deurne/2100/11173722,11173722.0,Flanders,Antwerp,Antwerpen Deurne,2100,4.4639884,51.2339628,APARTMENT,APARTMENT,174000.0,2.0,76.0,unknown,0.0,None,1,10.0,0,0.0,0,2,None,GOOD,unknown,B,165,None,None,Antwerpen,Flanders,2289.47
88,https://www.immoweb.be/en/classified/apartment/for-sale/antwerpen%20deurne/2100/11173720,11173720.0,Flanders,Antwerp,Antwerpen Deurne,2100,4.4615743,51.2110997,APARTMENT,APARTMENT,279000.0,3.0,110.0,unknown,,None,1,13.0,0,0.0,Nan,2,None,unknown,FUELOIL,B,195,None,1.0,Antwerpen,Flanders,2536.36
89,https://www.immoweb.be/en/classified/apartment/for-sale/antwerpen%20hoboken/2660/11173719,11173719.0,Flanders,Antwerp,Antwerpen Hoboken,2660,4.3473057,51.1803482,APARTMENT,APARTMENT,259000.0,2.0,76.0,INSTALLED,0.0,None,1,6.0,0,0.0,0,2,False,unknown,GAS,B,103.44,1.0,None,Antwerpen,Flanders,3407.89
90,https://www.immoweb.be/en/classified/ground-floor/for-sale/sint-pieters-leeuw/1600/11173714,11173714.0,Flanders,Flemish Brabant,Sint-Pieters-Leeuw,1600,4.2782091,50.7907154,APARTMENT,GROUND_FLOOR,230000.0,2.0,75.0,USA_INSTALLED,,None,1,15.0,0,0.0,Nan,2,None,GOOD,GAS,C,239,1.0,1.0,Flemish Brabant,Flanders,3066.67
91,https://www.immoweb.be/en/classified/penthouse/for-sale/genk/3600/11173713,11173713.0,Flanders,Limburg,Genk,3600,5.5005222,50.9712509,APARTMENT,PENTHOUSE,895000.0,2.0,189.0,unknown,0.0,None,1,0.0,0,0.0,0,2,None,AS_NEW,GAS,A,59,None,None,Limburg,Flanders,4735.45
92,https://www.immoweb.be/en/classified/mixed-use-building/for-sale/antwerp/2020/11173711,11173711.0,Flanders,Antwerp,Antwerp,2020,4.3827551,51.1881655,HOUSE,MIXED_USE_BUILDING,499000.0,3.0,250.0,INSTALLED,0.0,None,1,0.0,1,20.0,140,2,None,GOOD,GAS,B,190,None,None,Antwerpen,Flanders,1996.0
93,https://www.immoweb.be/en/classified/apartment/for-sale/ath/7800/11173710,11173710.0,Wallonie,Hainaut,Ath,7800,None,None,APARTMENT,APARTMENT,195000.0,2.0,115.0,HYPER_EQUIPPED,0.0,None,0,0.0,0,0.0,Nan,2,False,AS_NEW,GAS,B,168,1.0,1.0,Hainaut,Wallonie,1695.65
94,https://www.immoweb.be/en/classified/apartment/for-sale/forest/1190/11173707,11173707.0,Brussels,Brussels,Forest,1190,4.3452418,50.818712,APARTMENT,APARTMENT,279000.0,2.0,65.0,USA_HYPER_EQUIPPED,1.0,None,0,0.0,0,0.0,0,2,False,AS_NEW,GAS,G,364,None,None,Brussels,Bruxelles,4292.31
95,https://www.immoweb.be/en/classified/house/for-sale/hoboken/2660/11173705,11173705.0,Flanders,Antwerp,HOBOKEN,2660,4.3486132,51.1744385,HOUSE,HOUSE,235000.0,2.0,145.0,SEMI_EQUIPPED,,None,0,0.0,0,0.0,105,2,None,TO_RENOVATE,GAS,D,319,None,None,Antwerpen,Flanders,1620.69
96,https://www.immoweb.be/en/classified/house/for-sale/hoboken/2660/11173704,11173704.0,Flanders,Antwerp,HOBOKEN,2660,4.3412666,51.1718625,HOUSE,HOUSE,249000.0,2.0,90.0,INSTALLED,,None,1,12.0,1,106.0,161,2,None,AS_NEW,GAS,B,200,None,None,Antwerpen,Flanders,2766.67
97,https://www.immoweb.be/en/classified/apartment/for-sale/ixelles/1050/11173703,11173703.0,Brussels,Brussels,Ixelles,1050,4.3775287,50.8153991,APARTMENT,APARTMENT,780000.0,2.0,150.0,USA_INSTALLED,,None,0,0.0,0,0.0,Nan,2,False,AS_NEW,GAS,E,231,None,None,Brussels,Bruxelles,5200.0
98,https://www.immoweb.be/en/classified/house/for-sale/kortemark/8610/11173701,11173701.0,Flanders,West Flanders,Kortemark,8610,3.0389499,51.0234644,HOUSE,HOUSE,342500.0,3.0,123.0,unknown,0.0,None,1,0.0,0,0.0,265,3,False,unknown,GAS,A,81,None,1.0,West Flanders,Flanders,2784.55
99,https://www.immoweb.be/en/classified/house/for-sale/edegem/2650/11173700,11173700.0,Flanders,Antwerp,EDEGEM,2650,4.4546859,51.1632999,HOUSE,HOUSE,795000.0,7.0,321.0,SEMI_EQUIPPED,,None,1,0.0,0,0.0,1080,2,None,GOOD,GAS,F,576,None,1.0,Antwerpen,Flanders,2476.64
100,https://www.immoweb.be/en/classified/apartment-block/for-sale/edegem/2650/11173699,11173699.0,Flanders,Antwerp,EDEGEM,2650,4.4546859,51.1632999,HOUSE,APARTMENT_BLOCK,795000.0,7.0,321.0,SEMI_EQUIPPED,,None,1,0.0,0,0.0,1080,2,None,GOOD,GAS,F,576,None,1.0,Antwerpen,Flanders,2476.64
101,https://www.immoweb.be/en/classified/apartment/for-sale/aalst/9300/11173697,11173697.0,Flanders,East Flanders,AALST,9300,4.0476895,50.9430439,APARTMENT,APARTMENT,107500.0,1.0,63.0,SEMI_EQUIPPED,,None,1,0.0,0,0.0,Nan,2,None,TO_RENOVATE,GAS,C,256,None,None,East Flanders,Flanders,1706.35
102,https://www.immoweb.be/en/classified/apartment/for-sale/aalst/9300/11173694,11173694.0,Flanders,East Flanders,AALST,9300,4.0476895,50.9430439,APARTMENT,APARTMENT,107500.0,1.0,63.0,SEMI_EQUIPPED,,None,1,0.0,0,0.0,Nan,2,None,TO_RENOVATE,GAS,F,668,None,None,East Flanders,Flanders,1706.35
103,https://www.immoweb.be/en/classified/ground-floor/for-sale/namur/5000/11173692,11173692.0,Wallonie,Namur,Namur,5000,4.8544958,50.4686548,APARTMENT,GROUND_FLOOR,270000.0,2.0,84.0,USA_INSTALLED,0.0,None,1,35.0,0,0.0,Nan,4,False,AS_NEW,unknown,A,80,None,None,Namur,Wallonie,3214.29
104,https://www.immoweb.be/en/classified/apartment/for-sale/ganshoren/1083/11173688,11173688.0,Brussels,Brussels,Ganshoren,1083,4.3013785,50.8739039,APARTMENT,APARTMENT,290000.0,3.0,110.0,unknown,0.0,None,1,13.0,0,0.0,Nan,2,False,TO_BE_DONE_UP,FUELOIL,D,184,None,None,Brussels,Bruxelles,2636.36
105,https://www.immoweb.be/en/classified/apartment/for-sale/berchem/2600/11173687,11173687.0,Flanders,Antwerp,Berchem,2600,4.412777,51.1984462,APARTMENT,APARTMENT,470000.0,3.0,177.0,unknown,,None,1,0.0,0,0.0,0,3,None,TO_RENOVATE,GAS,B,136,2.0,None,Antwerpen,Flanders,2655.37
106,https://www.immoweb.be/en/classified/house/for-sale/grez-doiceau/1390/11173686,11173686.0,Wallonie,Walloon Brabant,Grez-Doiceau,1390,4.6913332,50.7384525,HOUSE,HOUSE,475000.0,4.0,191.0,INSTALLED,,-1.0,1,0.0,0,0.0,640,4,None,unknown,FUELOIL,C,212,3.0,None,Walloon Brabant,Wallonie,2486.91
107,https://www.immoweb.be/en/classified/apartment/for-sale/antwerp/2018/11173682,11173682.0,Flanders,Antwerp,Antwerp,2018,4.4174202,51.2149924,APARTMENT,APARTMENT,450000.0,2.0,90.0,INSTALLED,,-1.0,1,9.0,0,0.0,0,2,None,GOOD,GAS,B,113,None,None,Antwerpen,Flanders,5000.0
108,https://www.immoweb.be/en/classified/apartment-block/for-sale/gent/9000/11173677,11173677.0,Flanders,East Flanders,Gent,9000,3.7414091,51.0363532,HOUSE,APARTMENT_BLOCK,1150000.0,6.0,300.0,INSTALLED,1.0,None,0,0.0,1,40.0,148,2,False,AS_NEW,GAS,B,171,None,None,East Flanders,Flanders,3833.33
109,https://www.immoweb.be/en/classified/apartment-block/for-sale/ledeberg/9050/11173676,11173676.0,Flanders,East Flanders,Ledeberg,9050,3.7414091,51.0363532,HOUSE,APARTMENT_BLOCK,1150000.0,6.0,300.0,INSTALLED,1.0,None,0,0.0,1,40.0,148,2,False,AS_NEW,GAS,B,171,None,None,East Flanders,Flanders,3833.33
110,https://www.immoweb.be/en/classified/house/for-sale/herk-de-stad/3540/11173673,11173673.0,Flanders,Limburg,Herk-de-Stad,3540,5.1733872,50.9563141,HOUSE,HOUSE,695000.0,3.0,300.0,HYPER_EQUIPPED,0.0,None,1,0.0,0,0.0,3183,4,True,unknown,FUELOIL,D,339,None,2.0,Limburg,Flanders,2316.67
111,https://www.immoweb.be/en/classified/apartment/for-sale/knokke-heist/8300/10927419,10927419.0,Flanders,West Flanders,Knokke-Heist,8300,3.298051,51.355014,APARTMENT,APARTMENT,150000.0,1.0,45.0,USA_HYPER_EQUIPPED,0.0,None,1,4.0,0,0.0,0,2,False,GOOD,GAS,A,69,None,None,West Flanders,Flanders,3333.33
112,https://www.immoweb.be/en/classified/apartment/for-sale/anderlecht/1070/11138192,11138192.0,Brussels,Brussels,Anderlecht,1070,4.2926593,50.828292,APARTMENT,APARTMENT,155000.0,1.0,62.0,INSTALLED,0.0,None,1,9.0,0,0.0,Nan,2,False,GOOD,GAS,E,254,None,1.0,Brussels,Bruxelles,2500.0
113,https://www.immoweb.be/en/classified/apartment/for-sale/louvain-la-neuve/1348/11128523,11128523.0,Wallonie,Walloon Brabant,Louvain-La-Neuve,1348,4.6170014,50.6687139,APARTMENT,APARTMENT,155000.0,1.0,38.0,SEMI_EQUIPPED,,-1.0,0,0.0,1,0.0,Nan,2,None,GOOD,GAS,E,425,None,None,Walloon Brabant,Wallonie,4078.95
114,https://www.immoweb.be/en/classified/apartment/for-sale/anderlecht/1070/10216907,10216907.0,Brussels,Brussels,Anderlecht,1070,4.3085197,50.8285289,APARTMENT,APARTMENT,159000.0,2.0,73.0,SEMI_EQUIPPED,0.0,None,1,14.0,0,0.0,Nan,2,False,TO_RENOVATE,GAS,G,950,None,None,Brussels,Bruxelles,2178.08
115,https://www.immoweb.be/en/classified/apartment/for-sale/hoboken/2660/10833524,10833524.0,Flanders,Antwerp,HOBOKEN,2660,4.3571245,51.1783882,APARTMENT,APARTMENT,159000.0,2.0,90.0,unknown,,None,1,2.0,0,0.0,Nan,2,None,TO_BE_DONE_UP,GAS,B,156,None,None,Antwerpen,Flanders,1766.67
116,https://www.immoweb.be/en/classified/apartment/for-sale/warzee/4590/11103068,11103068.0,Wallonie,Liège,WARZÉE,4590,5.4192439,50.449476,APARTMENT,APARTMENT,159000.0,2.0,100.0,INSTALLED,,-1.0,0,0.0,0,0.0,Nan,4,None,GOOD,PELLET,C,234,None,None,Liège,Wallonie,1590.0
117,https://www.immoweb.be/en/classified/flat-studio/for-sale/laeken/1020/11027060,11027060.0,Brussels,Brussels,Laeken,1020,4.3362343,50.887072,APARTMENT,FLAT_STUDIO,169000.0,0.0,50.0,SEMI_EQUIPPED,0.0,None,1,2.0,0,0.0,Nan,2,False,GOOD,FUELOIL,E,229,None,None,Brussels,Bruxelles,3380.0
118,https://www.immoweb.be/en/classified/apartment/for-sale/koekelberg/1081/10937848,10937848.0,Brussels,Brussels,Koekelberg,1081,4.3161824,50.8632536,APARTMENT,APARTMENT,169000.0,1.0,72.0,INSTALLED,,None,1,3.0,0,0.0,Nan,2,False,TO_BE_DONE_UP,GAS,G,704,None,None,Brussels,Bruxelles,2347.22
119,https://www.immoweb.be/en/classified/apartment/for-sale/aalst/9300/11114454,11114454.0,Flanders,East Flanders,Aalst,9300,4.0138904,50.9441792,APARTMENT,APARTMENT,169000.0,1.0,63.0,INSTALLED,,None,1,0.0,0,0.0,Nan,3,None,JUST_RENOVATED,FUELOIL,C,215,1.0,None,East Flanders,Flanders,2682.54
120,https://www.immoweb.be/en/classified/apartment/for-sale/ganshoren/1083/10857562,10857562.0,Brussels,Brussels,Ganshoren,1083,4.3111904,50.8750574,APARTMENT,APARTMENT,170000.0,2.0,83.0,NOT_INSTALLED,0.0,None,1,9.0,0,0.0,Nan,4,False,TO_RENOVATE,GAS,G,832,None,1.0,Brussels,Bruxelles,2048.19
121,https://www.immoweb.be/en/classified/flat-studio/for-sale/antwerp/2060/11103678,11103678.0,Flanders,Antwerp,Antwerp,2060,4.4170893,51.2301643,APARTMENT,FLAT_STUDIO,170000.0,1.0,30.0,HYPER_EQUIPPED,,None,1,0.0,0,0.0,Nan,2,None,AS_NEW,GAS,B,134,None,None,Antwerpen,Flanders,5666.67
122,https://www.immoweb.be/en/classified/apartment/for-sale/jurbise/7050/11014299,11014299.0,Wallonie,Hainaut,Jurbise,7050,3.9137573,50.526152,APARTMENT,APARTMENT,170000.0,2.0,85.0,INSTALLED,0.0,None,0,0.0,0,0.0,Nan,2,False,GOOD,GAS,B,127,1.0,None,Hainaut,Wallonie,2000.0
123,https://www.immoweb.be/en/classified/apartment/for-sale/jurbise/7050/11014297,11014297.0,Wallonie,Hainaut,Jurbise,7050,3.9137573,50.526152,APARTMENT,APARTMENT,170000.0,2.0,85.0,INSTALLED,0.0,None,0,0.0,0,0.0,Nan,2,False,GOOD,GAS,A,71,1.0,None,Hainaut,Wallonie,2000.0
124,https://www.immoweb.be/en/classified/apartment/for-sale/berchem/2600/11129690,11129690.0,Flanders,Antwerp,BERCHEM,2600,4.4476115,51.197713,APARTMENT,APARTMENT,174000.0,2.0,83.0,unknown,,None,1,3.0,0,0.0,Nan,4,None,TO_RENOVATE,FUELOIL,B,199,None,1.0,Antwerpen,Flanders,2096.39
125,https://www.immoweb.be/en/classified/apartment/for-sale/schaerbeek/1030/11120338,11120338.0,Brussels,Brussels,Schaerbeek,1030,4.3847737,50.8719957,APARTMENT,APARTMENT,175000.0,1.0,74.0,USA_INSTALLED,0.0,None,1,0.0,0,0.0,0,2,False,GOOD,GAS,D,196,None,None,Brussels,Bruxelles,2364.86
126,https://www.immoweb.be/en/classified/apartment/for-sale/ganshoren/1083/10993992,10993992.0,Brussels,Brussels,Ganshoren,1083,4.3066813,50.877563,APARTMENT,APARTMENT,175000.0,2.0,75.0,NOT_INSTALLED,0.0,None,1,18.0,0,0.0,Nan,2,False,TO_RENOVATE,FUELOIL,D,199,None,1.0,Brussels,Bruxelles,2333.33
127,https://www.immoweb.be/en/classified/apartment/for-sale/wenduine/8420/11022344,11022344.0,Flanders,West Flanders,WENDUINE,8420,3.0838995,51.3032357,APARTMENT,APARTMENT,175000.0,1.0,63.0,unknown,1.0,None,0,0.0,0,0.0,Nan,2,None,GOOD,ELECTRIC,F,555,None,None,West Flanders,Flanders,2777.78
128,https://www.immoweb.be/en/classified/apartment/for-sale/bruxelles/1000/11052677,11052677.0,Brussels,Brussels,Bruxelles,1000,4.3492529,50.8344993,APARTMENT,APARTMENT,179000.0,1.0,40.0,INSTALLED,0.0,None,0,0.0,0,0.0,0,2,False,TO_RENOVATE,GAS,D,194,None,None,Brussels,Bruxelles,4475.0
129,https://www.immoweb.be/en/classified/apartment/for-sale/antwerpen/2170/10987220,10987220.0,Flanders,Antwerp,Antwerpen,2170,4.4321119,51.2475968,APARTMENT,APARTMENT,185000.0,2.0,65.0,unknown,0.0,None,1,6.0,0,0.0,Nan,2,False,JUST_RENOVATED,GAS,B,161,None,None,Antwerpen,Flanders,2846.15
130,https://www.immoweb.be/en/classified/flat-studio/for-sale/brugge/8380/11085933,11085933.0,Flanders,West Flanders,Brugge,8380,3.1867034,51.3182832,APARTMENT,FLAT_STUDIO,185000.0,0.0,49.0,USA_HYPER_EQUIPPED,1.0,None,0,0.0,0,0.0,0,2,False,AS_NEW,ELECTRIC,F,584,None,None,West Flanders,Flanders,3775.51
131,https://www.immoweb.be/en/classified/apartment/for-sale/ronse/9600/10914263,10914263.0,Flanders,East Flanders,Ronse,9600,3.604048,50.7457339,APARTMENT,APARTMENT,185000.0,3.0,143.0,HYPER_EQUIPPED,0.0,None,1,15.0,0,0.0,0,2,False,TO_BE_DONE_UP,FUELOIL,B,154,None,None,East Flanders,Flanders,1293.71
132,https://www.immoweb.be/en/classified/apartment/for-sale/anderlecht/1070/11119478,11119478.0,Brussels,Brussels,Anderlecht,1070,4.2926593,50.828292,APARTMENT,APARTMENT,189000.0,2.0,75.0,SEMI_EQUIPPED,0.0,None,1,16.0,0,0.0,Nan,2,False,AS_NEW,GAS,E,233,None,None,Brussels,Bruxelles,2520.0
133,https://www.immoweb.be/en/classified/apartment/for-sale/schoten/2900/11117176,11117176.0,Flanders,Antwerp,Schoten,2900,4.4718446,51.2456173,APARTMENT,APARTMENT,189000.0,1.0,85.0,SEMI_EQUIPPED,,-1.0,1,15.0,0,0.0,0,3,None,JUST_RENOVATED,GAS,B,157,1.0,None,Antwerpen,Flanders,2223.53
134,https://www.immoweb.be/en/classified/apartment/for-sale/deinze/9800/11079481,11079481.0,Flanders,East Flanders,Deinze,9800,3.5280248,50.9855444,APARTMENT,APARTMENT,189000.0,2.0,65.0,INSTALLED,,None,1,2.0,0,0.0,Nan,2,None,AS_NEW,GAS,A,99,None,None,East Flanders,Flanders,2907.69
135,https://www.immoweb.be/en/classified/apartment/for-sale/ixelles/1050/11054059,11054059.0,Brussels,Brussels,Ixelles,1050,4.3848947,50.8130169,APARTMENT,APARTMENT,190000.0,1.0,60.0,NOT_INSTALLED,0.0,None,1,4.0,0,0.0,Nan,2,False,TO_RENOVATE,GAS,G,441,None,None,Brussels,Bruxelles,3166.67
136,https://www.immoweb.be/en/classified/apartment/for-sale/grimbergen/1853/10853149,10853149.0,Flanders,Flemish Brabant,Grimbergen,1853,4.3588329,50.9029121,APARTMENT,APARTMENT,190000.0,1.0,55.0,SEMI_EQUIPPED,0.0,None,0,0.0,0,0.0,Nan,2,False,GOOD,GAS,B,145,None,None,Flemish Brabant,Flanders,3454.55
137,https://www.immoweb.be/en/classified/apartment/for-sale/molenbeek-saint-jean/1080/11139109,11139109.0,Brussels,Brussels,Molenbeek-Saint-Jean,1080,4.3053143,50.8551343,APARTMENT,APARTMENT,195000.0,2.0,98.0,SEMI_EQUIPPED,0.0,None,1,10.0,0,0.0,Nan,4,False,TO_BE_DONE_UP,GAS,C,127,None,1.0,Brussels,Bruxelles,1989.8
138,https://www.immoweb.be/en/classified/apartment/for-sale/molenbeek-saint-jean/1080/10890499,10890499.0,Brussels,Brussels,Molenbeek-Saint-Jean,1080,4.303382,50.8546459,APARTMENT,APARTMENT,195000.0,2.0,122.0,INSTALLED,0.0,None,1,18.0,0,0.0,Nan,2,False,TO_BE_DONE_UP,GAS,D,162,None,1.0,Brussels,Bruxelles,1598.36
139,https://www.immoweb.be/en/classified/apartment/for-sale/woluwe-saint-pierre/1150/11140636,11140636.0,Brussels,Brussels,Woluwe-Saint-Pierre,1150,4.4421338,50.8334543,APARTMENT,APARTMENT,195000.0,1.0,53.0,HYPER_EQUIPPED,0.0,None,1,4.0,0,0.0,Nan,2,False,AS_NEW,GAS,E,272,1.0,None,Brussels,Bruxelles,3679.25
140,https://www.immoweb.be/en/classified/flat-studio/for-sale/gent/9000/11121577,11121577.0,Flanders,East Flanders,GENT,9000,3.7335394,51.0503957,APARTMENT,FLAT_STUDIO,195000.0,1.0,38.0,INSTALLED,,None,0,0.0,0,0.0,Nan,2,None,GOOD,GAS,C,293,None,None,East Flanders,Flanders,5131.58
141,https://www.immoweb.be/en/classified/apartment-block/for-sale/verviers/4800/11173139,11173139.0,Wallonie,Liège,Verviers,4800,5.861222,50.5888256,HOUSE,APARTMENT_BLOCK,245000.0,6.0,255.0,SEMI_EQUIPPED,0.0,None,0,0.0,0,0.0,195,2,False,TO_BE_DONE_UP,FUELOIL,G,524,None,None,Liège,Wallonie,960.78
142,https://www.immoweb.be/en/classified/apartment/for-sale/antwerp/2020/11173136,11173136.0,Flanders,Antwerp,Antwerp,2020,4.3922458,51.1825801,APARTMENT,APARTMENT,178000.0,2.0,84.0,INSTALLED,,-1.0,1,5.0,0,0.0,Nan,4,None,JUST_RENOVATED,FUELOIL,C,251,1.0,None,Antwerpen,Flanders,2119.05
143,https://www.immoweb.be/en/classified/house/for-sale/duffel/2570/11173131,11173131.0,Flanders,Antwerp,Duffel,2570,4.5158994,51.0960196,HOUSE,HOUSE,260000.0,4.0,168.0,SEMI_EQUIPPED,,-1.0,1,100.0,0,0.0,0,2,None,TO_RENOVATE,FUELOIL,F,636,None,None,Antwerpen,Flanders,1547.62
144,https://www.immoweb.be/en/classified/apartment/for-sale/antwerp/2020/11173129,11173129.0,Flanders,Antwerp,Antwerp,2020,4.3915097,51.1821925,APARTMENT,APARTMENT,179000.0,2.0,83.0,SEMI_EQUIPPED,,-1.0,1,9.0,0,0.0,0,2,None,GOOD,FUELOIL,B,174,None,None,Antwerpen,Flanders,2156.63
145,https://www.immoweb.be/en/classified/apartment/for-sale/antwerp/2020/11173128,11173128.0,Flanders,Antwerp,Antwerp,2020,4.3922458,51.1825801,APARTMENT,APARTMENT,178000.0,2.0,84.0,INSTALLED,,-1.0,1,5.0,0,0.0,Nan,4,None,JUST_RENOVATED,FUELOIL,C,251,1.0,None,Antwerpen,Flanders,2119.05
146,https://www.immoweb.be/en/classified/house/for-sale/hemiksem/2620/11173127,11173127.0,Flanders,Antwerp,Hemiksem,2620,4.3369821,51.1402661,HOUSE,HOUSE,199000.0,2.0,96.0,SEMI_EQUIPPED,,-1.0,0,0.0,0,0.0,0,2,None,GOOD,GAS,D,362,None,None,Antwerpen,Flanders,2072.92
147,https://www.immoweb.be/en/classified/house/for-sale/deurne/2100/11173126,11173126.0,Flanders,Antwerp,Deurne,2100,4.4477358,51.2327412,HOUSE,HOUSE,284000.0,3.0,196.0,INSTALLED,,-1.0,0,0.0,1,30.0,0,2,None,GOOD,GAS,D,380,None,1.0,Antwerpen,Flanders,1448.98
148,https://www.immoweb.be/en/classified/other-property/for-sale/gent/9000/11173122,11173122.0,Flanders,East Flanders,GENT,9000,3.7306006,51.0540911,HOUSE,OTHER_PROPERTY,265000.0,1.0,100.0,SEMI_EQUIPPED,,None,0,0.0,0,0.0,694,2,None,unknown,GAS,D,305,None,None,East Flanders,Flanders,2650.0
149,https://www.immoweb.be/en/classified/house/for-sale/winksele/3020/11173120,11173120.0,Flanders,Flemish Brabant,WINKSELE,3020,4.6291694,50.9275341,HOUSE,HOUSE,695000.0,4.0,295.0,unknown,,None,0,0.0,0,0.0,1560,2,None,unknown,GAS,B,122,None,2.0,Flemish Brabant,Flanders,2355.93
150,https://www.immoweb.be/en/classified/house/for-sale/destelbergen/9070/11173109,11173109.0,Flanders,East Flanders,Destelbergen,9070,3.7662552,51.056033,HOUSE,HOUSE,385000.0,3.0,180.0,INSTALLED,0.0,None,1,40.0,1,0.0,0,2,False,AS_NEW,GAS,E,454,None,1.0,East Flanders,Flanders,2138.89
151,https://www.immoweb.be/en/classified/house/for-sale/edegem/2650/11173108,11173108.0,Flanders,Antwerp,EDEGEM,2650,4.4619585,51.1516492,HOUSE,HOUSE,399000.0,3.0,113.0,HYPER_EQUIPPED,0.0,None,1,0.0,0,0.0,86,2,None,JUST_RENOVATED,GAS,B,139,None,None,Antwerpen,Flanders,3530.97
152,https://www.immoweb.be/en/classified/apartment/for-sale/liege%201/4000/11173106,11173106.0,Wallonie,Liège,Liege 1,4000,5.5667816,50.634711,APARTMENT,APARTMENT,179000.0,1.0,59.0,INSTALLED,0.0,None,0,0.0,0,0.0,Nan,4,None,unknown,GAS,B,103,None,1.0,Liège,Wallonie,3033.9
153,https://www.immoweb.be/en/classified/apartment/for-sale/woluwe-saint-lambert/1200/11173100,11173100.0,Brussels,Brussels,Woluwe-Saint-Lambert,1200,4.4296412,50.8449654,APARTMENT,APARTMENT,455000.0,3.0,122.0,HYPER_EQUIPPED,0.0,None,1,4.0,0,0.0,0,2,None,unknown,FUELOIL,D,177,None,None,Brussels,Bruxelles,3729.51
154,https://www.immoweb.be/en/classified/apartment/for-sale/sint-kruis/8310/11173099,11173099.0,Flanders,West Flanders,Sint-Kruis,8310,3.247044,51.2133109,APARTMENT,APARTMENT,205000.0,2.0,71.0,SEMI_EQUIPPED,0.0,None,0,0.0,0,0.0,0,2,False,TO_BE_DONE_UP,GAS,C,242,None,1.0,West Flanders,Flanders,2887.32
155,https://www.immoweb.be/en/classified/house/for-sale/beerzel/2580/11173097,11173097.0,Flanders,Antwerp,BEERZEL,2580,4.6759616,51.0615796,HOUSE,HOUSE,795000.0,4.0,274.0,INSTALLED,,None,0,0.0,0,0.0,2025,4,None,GOOD,GAS,C,234,None,3.0,Antwerpen,Flanders,2901.46
156,https://www.immoweb.be/en/classified/apartment/for-sale/heusden-zolder/3550/11173095,11173095.0,Flanders,Limburg,Heusden-Zolder,3550,5.2845217,51.0396059,APARTMENT,APARTMENT,225000.0,2.0,128.0,HYPER_EQUIPPED,0.0,None,1,0.0,0,0.0,0,3,None,GOOD,GAS,C,247,2.0,1.0,Limburg,Flanders,1757.81
157,https://www.immoweb.be/en/classified/house/for-sale/kortrijk/8500/11173092,11173092.0,Flanders,West Flanders,KORTRIJK,8500,3.2621741,50.8279759,HOUSE,HOUSE,449000.0,1.0,180.0,unknown,,None,0,0.0,0,0.0,66,2,None,JUST_RENOVATED,unknown,C,251,None,None,West Flanders,Flanders,2494.44
158,https://www.immoweb.be/en/classified/mansion/for-sale/kortrijk/8500/11173091,11173091.0,Flanders,West Flanders,KORTRIJK,8500,3.2621741,50.8279759,HOUSE,MANSION,449000.0,1.0,180.0,unknown,,None,0,0.0,0,0.0,66,2,None,JUST_RENOVATED,unknown,C,251,None,None,West Flanders,Flanders,2494.44
159,https://www.immoweb.be/en/classified/house/for-sale/li%C3%A8ge/4000/11173088,11173088.0,Wallonie,Liège,Liège,4000,5.5719308,50.6521746,HOUSE,HOUSE,168000.0,4.0,85.0,INSTALLED,,None,0,0.0,0,0.0,45,2,False,GOOD,GAS,C,231,None,None,Liège,Wallonie,1976.47
160,https://www.immoweb.be/en/classified/house/for-sale/li%C3%A8ge%20wandre/4020/11173082,11173082.0,Wallonie,Liège,Liège Wandre,4020,5.6655012,50.6754435,HOUSE,HOUSE,215000.0,3.0,100.0,INSTALLED,0.0,None,1,30.0,1,65.0,130,2,False,JUST_RENOVATED,GAS,D,290,None,None,Liège,Wallonie,2150.0
161,https://www.immoweb.be/en/classified/apartment/for-sale/uccle/1180/10800518,10800518.0,Brussels,Brussels,Uccle,1180,4.3475305,50.8065021,APARTMENT,APARTMENT,235000.0,1.0,75.0,HYPER_EQUIPPED,0.0,None,1,24.0,0,0.0,0,2,False,GOOD,GAS,C,147,None,1.0,Brussels,Bruxelles,3133.33
162,https://www.immoweb.be/en/classified/apartment/for-sale/seraing/4101/11120131,11120131.0,Wallonie,Liège,Seraing,4101,5.5056411,50.6213866,APARTMENT,APARTMENT,235000.0,3.0,100.0,SEMI_EQUIPPED,0.0,None,1,10.0,1,27000.0,0,4,False,GOOD,GAS,C,202,2.0,1.0,Liège,Wallonie,2350.0
163,https://www.immoweb.be/en/classified/apartment/for-sale/gembloux/5030/10909941,10909941.0,Wallonie,Namur,Gembloux,5030,4.6922331,50.5589162,APARTMENT,APARTMENT,235000.0,2.0,97.0,INSTALLED,,-1.0,0,0.0,1,0.0,Nan,3,None,GOOD,GAS,B,169,1.0,None,Namur,Wallonie,2422.68
164,https://www.immoweb.be/en/classified/apartment/for-sale/arlon/6700/11059394,11059394.0,Wallonie,Luxembourg,Arlon,6700,5.8132543,49.6822973,APARTMENT,APARTMENT,235000.0,2.0,94.0,INSTALLED,,None,1,12.0,0,0.0,Nan,2,None,GOOD,GAS,C,192,None,None,Luxembourg,Wallonie,2500.0
165,https://www.immoweb.be/en/classified/apartment/for-sale/sint-jans-molenbeek/1080/11039784,11039784.0,Brussels,Brussels,SINT-JANS-MOLENBEEK,1080,4.3124576,50.851832,APARTMENT,APARTMENT,239000.0,2.0,106.0,INSTALLED,,None,1,12.0,0,0.0,Nan,2,None,TO_BE_DONE_UP,FUELOIL,C,123,None,1.0,Brussels,Bruxelles,2254.72
166,https://www.immoweb.be/en/classified/apartment/for-sale/berchem-sainte-agathe/1082/10419257,10419257.0,Brussels,Brussels,Berchem-Sainte-Agathe,1082,4.3066255,50.8661292,APARTMENT,APARTMENT,239000.0,2.0,88.0,INSTALLED,0.0,None,1,8.0,0,0.0,Nan,3,False,AS_NEW,GAS,D,177,None,1.0,Brussels,Bruxelles,2715.91
167,https://www.immoweb.be/en/classified/apartment/for-sale/jette/1090/10887975,10887975.0,Brussels,Brussels,Jette,1090,4.332788,50.8768037,APARTMENT,APARTMENT,239000.0,2.0,118.0,INSTALLED,0.0,None,1,2.0,0,0.0,Nan,2,False,TO_RENOVATE,GAS,E,271,None,None,Brussels,Bruxelles,2025.42
168,https://www.immoweb.be/en/classified/apartment/for-sale/woluwe-saint-lambert/1200/10955380,10955380.0,Brussels,Brussels,Woluwe-Saint-Lambert,1200,4.436312,50.8516804,APARTMENT,APARTMENT,239000.0,2.0,83.0,SEMI_EQUIPPED,,None,1,20.0,0,0.0,0,2,None,TO_RENOVATE,GAS,E,225,None,None,Brussels,Bruxelles,2879.52
169,https://www.immoweb.be/en/classified/apartment/for-sale/wemmel/1780/11090383,11090383.0,Flanders,Flemish Brabant,Wemmel,1780,4.3208871,50.8991399,APARTMENT,APARTMENT,239000.0,2.0,90.0,SEMI_EQUIPPED,,1.0,1,3.0,1,0.0,0,2,None,GOOD,GAS,D,366,None,None,Flemish Brabant,Flanders,2655.56
170,https://www.immoweb.be/en/classified/apartment/for-sale/borgerhout/2140/11132105,11132105.0,Flanders,Antwerp,BORGERHOUT,2140,4.4621946,51.2099777,APARTMENT,APARTMENT,239000.0,2.0,106.0,INSTALLED,,None,1,6.0,0,0.0,Nan,3,None,GOOD,GAS,C,222,None,None,Antwerpen,Flanders,2254.72
171,https://www.immoweb.be/en/classified/apartment/for-sale/wilrijk/2610/10959459,10959459.0,Flanders,Antwerp,Wilrijk,2610,4.422075,51.1783242,APARTMENT,APARTMENT,239000.0,2.0,120.0,SEMI_EQUIPPED,,-1.0,1,14.0,0,0.0,0,2,None,GOOD,FUELOIL,B,165,None,1.0,Antwerpen,Flanders,1991.67
172,https://www.immoweb.be/en/classified/apartment/for-sale/blankenberge/8370/11051514,11051514.0,Flanders,West Flanders,BLANKENBERGE,8370,3.1358273,51.3070468,APARTMENT,APARTMENT,239000.0,2.0,83.0,INSTALLED,,None,0,0.0,0,0.0,Nan,2,None,GOOD,GAS,B,197,None,None,West Flanders,Flanders,2879.52
173,https://www.immoweb.be/en/classified/penthouse/for-sale/baasrode/9200/10687355,10687355.0,Flanders,East Flanders,BAASRODE,9200,4.1685728,51.0355301,APARTMENT,PENTHOUSE,239000.0,2.0,91.0,INSTALLED,,None,0,0.0,0,0.0,Nan,3,None,GOOD,GAS,B,160,None,1.0,East Flanders,Flanders,2626.37
174,https://www.immoweb.be/en/classified/house/for-sale/dilbeek/1700/11174606,11174606.0,Flanders,Flemish Brabant,Dilbeek,1700,None,None,HOUSE,HOUSE,1036000.0,4.0,384.0,unknown,,None,0,0.0,0,0.0,663,4,None,AS_NEW,unknown,Nan,Nan,None,2.0,Flemish Brabant,Flanders,2697.92
175,https://www.immoweb.be/en/classified/house/for-sale/seraing/4100/11174600,11174600.0,Wallonie,Liège,Seraing,4100,5.5327433,50.5992414,HOUSE,HOUSE,175000.0,3.0,105.0,INSTALLED,0.0,None,1,11.0,1,113.0,226,2,False,GOOD,GAS,D,278,None,1.0,Liège,Wallonie,1666.67
176,https://www.immoweb.be/en/classified/town-house/for-sale/corswarem/4257/11174599,11174599.0,Wallonie,Liège,Corswarem,4257,None,None,HOUSE,TOWN_HOUSE,220000.0,3.0,159.0,USA_SEMI_EQUIPPED,0.0,None,1,24.0,1,913.0,1095,3,False,GOOD,unknown,E,369,2.0,1.0,Liège,Wallonie,1383.65
177,https://www.immoweb.be/en/classified/house/for-sale/charleroi/6060/11174588,11174588.0,Wallonie,Hainaut,Charleroi,6060,None,None,HOUSE,HOUSE,155000.0,3.0,120.0,unknown,0.0,None,1,0.0,0,0.0,0,2,None,GOOD,GAS,F,501,None,None,Hainaut,Wallonie,1291.67
178,https://www.immoweb.be/en/classified/house/for-sale/bissegem/8501/11174578,11174578.0,Flanders,West Flanders,Bissegem,8501,3.232013,50.829731,HOUSE,HOUSE,259000.0,3.0,140.0,unknown,0.0,None,0,0.0,0,0.0,215,3,False,unknown,GAS,E,424,None,1.0,West Flanders,Flanders,1850.0
179,https://www.immoweb.be/en/classified/apartment/for-sale/heule/8501/11174577,11174577.0,Flanders,West Flanders,Heule,8501,3.2573866,50.84014,APARTMENT,APARTMENT,159000.0,2.0,103.0,unknown,0.0,None,1,0.0,0,0.0,Nan,3,False,unknown,GAS,C,290,None,1.0,West Flanders,Flanders,1543.69
180,https://www.immoweb.be/en/classified/house/for-sale/bissegem/8501/11174576,11174576.0,Flanders,West Flanders,Bissegem,8501,3.2296797,50.8199611,HOUSE,HOUSE,265000.0,3.0,175.0,unknown,0.0,None,0,0.0,0,0.0,315,3,False,unknown,GAS,D,385,None,1.0,West Flanders,Flanders,1514.29
181,https://www.immoweb.be/en/classified/house/for-sale/lendelede/8860/11174575,11174575.0,Flanders,West Flanders,Lendelede,8860,3.2500344,50.8904807,HOUSE,HOUSE,229000.0,3.0,123.0,unknown,0.0,None,0,0.0,0,0.0,473,3,False,unknown,CARBON,F,1056,None,2.0,West Flanders,Flanders,1861.79
182,https://www.immoweb.be/en/classified/mixed-use-building/for-sale/uccle/1180/11174574,11174574.0,Brussels,Brussels,Uccle,1180,4.3369385,50.8024369,HOUSE,MIXED_USE_BUILDING,475000.0,0.0,260.0,SEMI_EQUIPPED,,1.0,0,0.0,1,165.0,0,2,None,TO_RENOVATE,GAS,G,371,None,None,Brussels,Bruxelles,1826.92
183,https://www.immoweb.be/en/classified/apartment/for-sale/antwerpen/2020/11174573,11174573.0,Flanders,Antwerp,Antwerpen,2020,4.3889375,51.1823665,APARTMENT,APARTMENT,249000.0,2.0,75.0,HYPER_EQUIPPED,0.0,None,1,3.0,0,0.0,Nan,2,False,unknown,GAS,B,199,None,None,Antwerpen,Flanders,3320.0
184,https://www.immoweb.be/en/classified/duplex/for-sale/molenbeek-saint-jean/1080/10708965,10708965.0,Brussels,Brussels,Molenbeek-Saint-Jean,1080,4.3174999,50.8578562,APARTMENT,DUPLEX,295000.0,2.0,106.0,USA_HYPER_EQUIPPED,0.0,None,1,11.0,0,0.0,Nan,2,False,AS_NEW,GAS,D,152,None,None,Brussels,Bruxelles,2783.02
185,https://www.immoweb.be/en/classified/apartment/for-sale/uccle/1180/10966543,10966543.0,Brussels,Brussels,Uccle,1180,4.3299459,50.8021386,APARTMENT,APARTMENT,295000.0,2.0,106.0,HYPER_EQUIPPED,0.0,None,1,13.0,0,0.0,Nan,2,False,TO_BE_DONE_UP,GAS,E,257,1.0,None,Brussels,Bruxelles,2783.02
186,https://www.immoweb.be/en/classified/apartment/for-sale/woluwe-saint-lambert/1200/10648662,10648662.0,Brussels,Brussels,Woluwe-Saint-Lambert,1200,4.4285649,50.8551326,APARTMENT,APARTMENT,295000.0,1.0,65.0,USA_HYPER_EQUIPPED,0.0,None,1,4.0,0,0.0,Nan,2,False,AS_NEW,GAS,B,56,None,None,Brussels,Bruxelles,4538.46
187,https://www.immoweb.be/en/classified/apartment/for-sale/nieuwpoort/8620/11121834,11121834.0,Flanders,West Flanders,Nieuwpoort,8620,2.7166026,51.1483879,APARTMENT,APARTMENT,295000.0,2.0,70.0,SEMI_EQUIPPED,,None,1,0.0,0,0.0,Nan,2,None,TO_BE_DONE_UP,GAS,C,247,None,None,West Flanders,Flanders,4214.29
188,https://www.immoweb.be/en/classified/apartment/for-sale/dendermonde/9200/10982553,10982553.0,Flanders,East Flanders,Dendermonde,9200,4.0911757,51.0333497,APARTMENT,APARTMENT,295000.0,3.0,107.0,USA_HYPER_EQUIPPED,0.0,None,1,0.0,0,0.0,0,2,False,JUST_RENOVATED,GAS,C,244,1.0,1.0,East Flanders,Flanders,2757.01
189,https://www.immoweb.be/en/classified/apartment/for-sale/bruxelles/1000/11104897,11104897.0,Brussels,Brussels,BRUXELLES,1000,4.3520695,50.8641919,APARTMENT,APARTMENT,299000.0,1.0,77.0,USA_HYPER_EQUIPPED,,None,0,0.0,0,0.0,Nan,4,True,AS_NEW,GAS,B,62,None,None,Brussels,Bruxelles,3883.12
190,https://www.immoweb.be/en/classified/penthouse/for-sale/anderlecht/1070/9584170,9584170.0,Brussels,Brussels,Anderlecht,1070,4.2536974,50.8174518,APARTMENT,PENTHOUSE,299000.0,2.0,110.0,HYPER_EQUIPPED,0.0,None,1,0.0,0,0.0,Nan,2,False,GOOD,GAS,C,102,None,None,Brussels,Bruxelles,2718.18
191,https://www.immoweb.be/en/classified/apartment/for-sale/evere/1140/11142844,11142844.0,Brussels,Brussels,Evere,1140,4.405305,50.8718853,APARTMENT,APARTMENT,299000.0,3.0,106.0,HYPER_EQUIPPED,0.0,None,1,2.0,0,0.0,Nan,2,False,GOOD,GAS,G,522,None,1.0,Brussels,Bruxelles,2820.75
192,https://www.immoweb.be/en/classified/duplex/for-sale/machelen/1831/10898796,10898796.0,Flanders,Flemish Brabant,Machelen,1831,4.4392088,50.8953463,APARTMENT,DUPLEX,299000.0,2.0,94.0,USA_HYPER_EQUIPPED,0.0,None,0,0.0,0,0.0,Nan,2,False,AS_NEW,GAS,B,147,1.0,None,Flemish Brabant,Flanders,3180.85
193,https://www.immoweb.be/en/classified/apartment/for-sale/huy/4500/11062387,11062387.0,Wallonie,Liège,Huy,4500,5.2399811,50.5274329,APARTMENT,APARTMENT,299000.0,3.0,157.0,INSTALLED,,-1.0,1,10.0,0,0.0,Nan,2,None,GOOD,GAS,B,112,None,1.0,Liège,Wallonie,1904.46
194,https://www.immoweb.be/en/classified/apartment/for-sale/molenbeek-saint-jean/1080/10549831,10549831.0,Brussels,Brussels,Molenbeek-Saint-Jean,1080,4.313192,50.8518456,APARTMENT,APARTMENT,300000.0,3.0,130.0,HYPER_EQUIPPED,1.0,None,1,15.0,0,0.0,Nan,2,None,AS_NEW,ELECTRIC,E,234,None,None,Brussels,Bruxelles,2307.69
195,https://www.immoweb.be/en/classified/apartment/for-sale/woluwe-saint-lambert/1200/10367225,10367225.0,Brussels,Brussels,Woluwe-Saint-Lambert,1200,4.4332386,50.8465498,APARTMENT,APARTMENT,300000.0,2.0,80.0,HYPER_EQUIPPED,0.0,None,1,18.0,0,0.0,Nan,2,False,AS_NEW,FUELOIL,E,225,None,None,Brussels,Bruxelles,3750.0
196,https://www.immoweb.be/en/classified/apartment/for-sale/antwerp/2020/10985914,10985914.0,Flanders,Antwerp,Antwerp,2020,4.3894971,51.190118,APARTMENT,APARTMENT,309000.0,3.0,101.0,INSTALLED,,-1.0,0,0.0,0,0.0,Nan,2,None,JUST_RENOVATED,GAS,B,158,None,None,Antwerpen,Flanders,3059.41
197,https://www.immoweb.be/en/classified/apartment/for-sale/bruxelles/1000/11096569,11096569.0,Brussels,Brussels,Bruxelles,1000,4.3539074,50.8356258,APARTMENT,APARTMENT,310000.0,2.0,68.0,USA_HYPER_EQUIPPED,1.0,None,1,15.0,1,50.0,Nan,2,False,TO_BE_DONE_UP,ELECTRIC,D,205,None,None,Brussels,Bruxelles,4558.82
198,https://www.immoweb.be/en/classified/flat-studio/for-sale/bruxelles/1000/10384121,10384121.0,Brussels,Brussels,Bruxelles,1000,4.3530985,50.8354908,APARTMENT,FLAT_STUDIO,310000.0,0.0,43.0,HYPER_EQUIPPED,1.0,None,0,0.0,0,0.0,Nan,2,False,AS_NEW,GAS,B,78,None,None,Brussels,Bruxelles,7209.3
199,https://www.immoweb.be/en/classified/apartment/for-sale/arlon/6700/11078613,11078613.0,Wallonie,Luxembourg,ARLON,6700,5.815012,49.6835116,APARTMENT,APARTMENT,310000.0,2.0,85.0,NOT_INSTALLED,,None,1,21.0,0,0.0,Nan,2,None,GOOD,GAS,A,76,None,None,Luxembourg,Wallonie,3647.06
200,https://www.immoweb.be/en/classified/apartment/for-sale/molenbeek-saint-jean/1080/11067090,11067090.0,Brussels,Brussels,Molenbeek-Saint-Jean,1080,4.29758,50.8502555,APARTMENT,APARTMENT,315000.0,3.0,143.0,HYPER_EQUIPPED,0.0,None,1,0.0,0,0.0,Nan,2,False,GOOD,GAS,C,97,1.0,1.0,Brussels,Bruxelles,2202.8
201,https://www.immoweb.be/en/classified/apartment/for-sale/waterloo/1410/10464004,10464004.0,Wallonie,Walloon Brabant,Waterloo,1410,4.3885577,50.7233568,APARTMENT,APARTMENT,315000.0,1.0,43.0,USA_INSTALLED,0.0,None,1,5.0,0,0.0,Nan,2,False,AS_NEW,PELLET,C,191,None,None,Walloon Brabant,Wallonie,7325.58
202,https://www.immoweb.be/en/classified/apartment/for-sale/brugge/8000/11126198,11126198.0,Flanders,West Flanders,Brugge,8000,3.2168771,51.2209765,APARTMENT,APARTMENT,315000.0,2.0,82.0,INSTALLED,0.0,None,1,4.0,0,0.0,0,2,False,GOOD,GAS,B,121,None,None,West Flanders,Flanders,3841.46
203,https://www.immoweb.be/en/classified/apartment/for-sale/de-panne/8660/11136848,11136848.0,Flanders,West Flanders,De Panne,8660,2.5691299,51.0960077,APARTMENT,APARTMENT,315000.0,1.0,75.0,HYPER_EQUIPPED,0.0,None,1,6.0,0,0.0,Nan,2,False,AS_NEW,GAS,B,138,2.0,2.0,West Flanders,Flanders,4200.0
204,https://www.immoweb.be/en/classified/apartment/for-sale/woluwe-saint-lambert/1200/10908732,10908732.0,Brussels,Brussels,Woluwe-Saint-Lambert,1200,4.4317499,50.8522651,APARTMENT,APARTMENT,319000.0,3.0,105.0,INSTALLED,0.0,None,1,20.0,0,0.0,Nan,3,False,GOOD,GAS,C,139,None,None,Brussels,Bruxelles,3038.1
205,https://www.immoweb.be/en/classified/flat-studio/for-sale/knokke-heist/8300/10981770,10981770.0,Flanders,West Flanders,Knokke-Heist,8300,3.2886899,51.3519685,APARTMENT,FLAT_STUDIO,319000.0,0.0,30.0,INSTALLED,,None,1,2.0,0,0.0,Nan,2,False,JUST_RENOVATED,GAS,B,158,None,None,West Flanders,Flanders,10633.33
206,https://www.immoweb.be/en/classified/apartment/for-sale/ixelles/1050/11108237,11108237.0,Brussels,Brussels,Ixelles,1050,4.3898334,50.8147781,APARTMENT,APARTMENT,320000.0,2.0,100.0,INSTALLED,,None,1,3.0,0,0.0,Nan,2,False,TO_BE_DONE_UP,GAS,D,182,None,None,Brussels,Bruxelles,3200.0
207,https://www.immoweb.be/en/classified/apartment/for-sale/auderghem/1160/10690260,10690260.0,Brussels,Brussels,Auderghem,1160,4.4297464,50.8208162,APARTMENT,APARTMENT,325000.0,2.0,110.0,unknown,0.0,None,1,9.0,0,0.0,Nan,2,False,TO_RENOVATE,GAS,D,155,None,1.0,Brussels,Bruxelles,2954.55
208,https://www.immoweb.be/en/classified/apartment/for-sale/woluwe-saint-lambert/1200/10934054,10934054.0,Brussels,Brussels,Woluwe-Saint-Lambert,1200,4.4325696,50.8473397,APARTMENT,APARTMENT,325000.0,2.0,117.0,INSTALLED,0.0,None,1,12.0,0,0.0,Nan,2,False,TO_RENOVATE,GAS,F,328,None,None,Brussels,Bruxelles,2777.78
209,https://www.immoweb.be/en/classified/apartment/for-sale/woluwe-saint-lambert/1200/10820552,10820552.0,Brussels,Brussels,Woluwe-Saint-Lambert,1200,4.4160267,50.8434928,APARTMENT,APARTMENT,325000.0,2.0,93.0,INSTALLED,0.0,None,1,2.0,0,0.0,Nan,2,False,GOOD,GAS,C,147,None,None,Brussels,Bruxelles,3494.62
210,https://www.immoweb.be/en/classified/apartment/for-sale/liege/4000/11091582,11091582.0,Wallonie,Liège,Liege,4000,5.5711281,50.6337907,APARTMENT,APARTMENT,325000.0,3.0,148.0,INSTALLED,0.0,None,1,13.0,0,0.0,Nan,2,False,GOOD,GAS,B,166,1.0,1.0,Liège,Wallonie,2195.95
211,https://www.immoweb.be/en/classified/apartment/for-sale/middelkerke/8430/11041140,11041140.0,Flanders,West Flanders,Middelkerke,8430,2.822188,51.1910234,APARTMENT,APARTMENT,325000.0,3.0,94.0,INSTALLED,,-1.0,0,0.0,0,0.0,0,2,None,TO_BE_DONE_UP,GAS,A,75,None,None,West Flanders,Flanders,3457.45
212,https://www.immoweb.be/en/classified/apartment/for-sale/oostduinkerke/8670/11123964,11123964.0,Flanders,West Flanders,OOSTDUINKERKE,8670,2.701841,51.1428906,APARTMENT,APARTMENT,325000.0,3.0,81.0,INSTALLED,,None,1,0.0,0,0.0,Nan,4,None,TO_BE_DONE_UP,GAS,E,410,None,None,West Flanders,Flanders,4012.35
213,https://www.immoweb.be/en/classified/duplex/for-sale/woluwe-saint-pierre/1150/10920021,10920021.0,Brussels,Brussels,Woluwe-Saint-Pierre,1150,4.4299424,50.8371672,APARTMENT,DUPLEX,330000.0,2.0,148.0,NOT_INSTALLED,0.0,None,1,11.0,0,0.0,Nan,2,False,TO_RENOVATE,GAS,G,635,None,None,Brussels,Bruxelles,2229.73
214,https://www.immoweb.be/en/classified/penthouse/for-sale/charleroi/6000/11172865,11172865.0,Wallonie,Hainaut,Charleroi,6000,4.4450402,50.3758689,APARTMENT,PENTHOUSE,330000.0,3.0,120.0,HYPER_EQUIPPED,0.0,None,0,0.0,0,0.0,Nan,4,None,AS_NEW,GAS,A,80,10.0,7.0,Hainaut,Wallonie,2750.0
215,https://www.immoweb.be/en/classified/house/for-sale/grace-hollogne/4460/11172864,11172864.0,Wallonie,Liège,Grace-Hollogne,4460,None,None,HOUSE,HOUSE,25000.0,2.0,161.0,SEMI_EQUIPPED,0.0,None,0,0.0,1,200.0,440,3,None,unknown,FUELOIL,D,274,3.0,1.0,Liège,Wallonie,155.28
216,https://www.immoweb.be/en/classified/apartment/for-sale/montegn%C3%A9e/4420/11172863,11172863.0,Wallonie,Liège,Montegnée,4420,None,None,APARTMENT,APARTMENT,60000.0,2.0,105.0,INSTALLED,0.0,None,1,30.0,0,0.0,Nan,2,None,unknown,GAS,E,405,None,None,Liège,Wallonie,571.43
217,https://www.immoweb.be/en/classified/house/for-sale/ch%C3%8An%C3%89e/4032/11172862,11172862.0,Wallonie,Liège,CHÊNÉE,4032,5.6171126,50.6113792,HOUSE,HOUSE,170000.0,3.0,113.0,unknown,,None,0,0.0,0,0.0,221,2,None,TO_BE_DONE_UP,GAS,F,499,None,None,Liège,Wallonie,1504.42
218,https://www.immoweb.be/en/classified/house/for-sale/overmere/9290/11172854,11172854.0,Flanders,East Flanders,Overmere,9290,3.9380195,51.0454328,HOUSE,HOUSE,675000.0,4.0,328.0,unknown,0.0,None,0,0.0,0,0.0,2895,4,True,unknown,FUELOIL,D,305,None,1.0,East Flanders,Flanders,2057.93
219,https://www.immoweb.be/en/classified/house/for-sale/tienen/3300/11172853,11172853.0,Flanders,Flemish Brabant,Tienen,3300,4.987199,50.8295656,HOUSE,HOUSE,299000.0,3.0,158.0,unknown,0.0,None,0,0.0,0,0.0,584,3,False,unknown,GAS,F,746,None,2.0,Flemish Brabant,Flanders,1892.41
220,https://www.immoweb.be/en/classified/ground-floor/for-sale/boechout%20%28boechout%29/2530/11172852,11172852.0,Flanders,Antwerp,Boechout (Boechout),2530,4.4954277,51.1634574,APARTMENT,GROUND_FLOOR,275000.0,2.0,95.0,unknown,0.0,None,0,0.0,1,27.0,Nan,2,False,unknown,GAS,C,207,None,None,Antwerpen,Flanders,2894.74
221,https://www.immoweb.be/en/classified/apartment/for-sale/jette/1090/11172848,11172848.0,Brussels,Brussels,Jette,1090,4.3337368,50.869199,APARTMENT,APARTMENT,299000.0,2.0,93.0,USA_HYPER_EQUIPPED,,None,0,0.0,0,0.0,Nan,3,False,AS_NEW,unknown,A,20,None,None,Brussels,Bruxelles,3215.05
222,https://www.immoweb.be/en/classified/apartment/for-sale/charleroi/6000/11172840,11172840.0,Wallonie,Hainaut,Charleroi,6000,4.4450402,50.3758689,APARTMENT,APARTMENT,255000.0,2.0,100.0,HYPER_EQUIPPED,0.0,None,0,0.0,0,0.0,Nan,4,None,JUST_RENOVATED,GAS,A,70,10.0,7.0,Hainaut,Wallonie,2550.0
223,https://www.immoweb.be/en/classified/apartment/for-sale/bruxelles/1000/11172837,11172837.0,Brussels,Brussels,Bruxelles,1000,None,None,APARTMENT,APARTMENT,265000.0,1.0,70.0,SEMI_EQUIPPED,0.0,None,0,0.0,0,0.0,0,2,False,JUST_RENOVATED,GAS,G,499,None,1.0,Brussels,Bruxelles,3785.71
224,https://www.immoweb.be/en/classified/house/for-sale/saint-nicolas/4420/11172836,11172836.0,Wallonie,Liège,Saint-Nicolas,4420,5.5455047,50.6259157,HOUSE,HOUSE,189900.0,3.0,130.0,INSTALLED,0.0,None,1,20.0,1,25.0,130,2,False,GOOD,FUELOIL,D,336,None,None,Liège,Wallonie,1460.77
225,https://www.immoweb.be/en/classified/mixed-use-building/for-sale/raeren/4731/11172835,11172835.0,Wallonie,Liège,Raeren,4731,6.083936,50.6922295,HOUSE,MIXED_USE_BUILDING,649000.0,6.0,960.0,INSTALLED,,None,0,0.0,0,0.0,1155,2,False,GOOD,GAS,C,190,5.0,None,Liège,Wallonie,676.04
226,https://www.immoweb.be/en/classified/house/for-sale/mortsel/2640/11172833,11172833.0,Flanders,Antwerp,MORTSEL,2640,4.4644172,51.1627324,HOUSE,HOUSE,295000.0,4.0,182.0,unknown,,None,0,0.0,1,55.0,137,2,None,TO_BE_DONE_UP,GAS,D,399,None,None,Antwerpen,Flanders,1620.88
227,https://www.immoweb.be/en/classified/villa/for-sale/tubize/1480/11172832,11172832.0,Wallonie,Walloon Brabant,Tubize,1480,None,None,HOUSE,VILLA,599000.0,5.0,350.0,unknown,,None,1,0.0,0,0.0,740,4,None,GOOD,FUELOIL,C,185,5.0,1.0,Walloon Brabant,Wallonie,1711.43
228,https://www.immoweb.be/en/classified/house/for-sale/poperinge/8970/11172830,11172830.0,Flanders,West Flanders,Poperinge,8970,2.7240325,50.8601195,HOUSE,HOUSE,210000.0,3.0,147.0,SEMI_EQUIPPED,0.0,None,0,0.0,0,0.0,236,2,False,GOOD,GAS,C,295,1.0,None,West Flanders,Flanders,1428.57
229,https://www.immoweb.be/en/classified/house/for-sale/rollegem/8510/11172829,11172829.0,Flanders,West Flanders,Rollegem,8510,3.263642,50.7667492,HOUSE,HOUSE,276000.0,4.0,223.0,INSTALLED,0.0,None,1,15.0,0,0.0,302,2,False,GOOD,GAS,C,272,None,None,West Flanders,Flanders,1237.67
230,https://www.immoweb.be/en/classified/flat-studio/for-sale/molenbeek/1080/11172825,11172825.0,Brussels,Brussels,MOLENBEEK,1080,None,None,APARTMENT,FLAT_STUDIO,123000.0,0.0,40.0,SEMI_EQUIPPED,1.0,-1.0,1,6.0,0,0.0,Nan,2,None,TO_RENOVATE,FUELOIL,F,290,None,None,Brussels,Bruxelles,3075.0
231,https://www.immoweb.be/en/classified/house/for-sale/brakel/9660/11172824,11172824.0,Flanders,East Flanders,Brakel,9660,3.7278402,50.773047,HOUSE,HOUSE,499000.0,3.0,222.0,INSTALLED,0.0,None,1,0.0,0,0.0,2581,4,False,GOOD,unknown,E,460,None,None,East Flanders,Flanders,2247.75
232,https://www.immoweb.be/en/classified/house/for-sale/ingelmunster/8770/11172820,11172820.0,Flanders,West Flanders,Ingelmunster,8770,3.2632971,50.9028606,HOUSE,HOUSE,299000.0,4.0,250.0,INSTALLED,0.0,None,1,0.0,0,0.0,1084,4,False,TO_RENOVATE,FUELOIL,Nan,Nan,3.0,None,West Flanders,Flanders,1196.0
233,https://www.immoweb.be/en/classified/apartment/for-sale/bruxelles/1000/11172819,11172819.0,Brussels,Brussels,Bruxelles,1000,None,None,APARTMENT,APARTMENT,375000.0,2.0,169.0,USA_SEMI_EQUIPPED,0.0,None,1,3.0,0,0.0,Nan,2,False,GOOD,FUELOIL,E,225,None,None,Brussels,Bruxelles,2218.93
234,https://www.immoweb.be/en/classified/apartment/for-sale/ieper/8900/11172818,11172818.0,Flanders,West Flanders,Ieper,8900,2.8785656,50.8489554,APARTMENT,APARTMENT,155000.0,1.0,51.0,INSTALLED,0.0,None,0,0.0,0,0.0,Nan,4,False,GOOD,GAS,C,259,None,None,West Flanders,Flanders,3039.22
235,https://www.immoweb.be/en/classified/apartment/for-sale/ieper/8900/11172817,11172817.0,Flanders,West Flanders,Ieper,8900,2.8785656,50.8489554,APARTMENT,APARTMENT,155000.0,1.0,39.0,INSTALLED,0.0,None,0,0.0,0,0.0,Nan,4,False,GOOD,GAS,D,307,None,None,West Flanders,Flanders,3974.36
236,https://www.immoweb.be/en/classified/house/for-sale/maaseik/3680/11172816,11172816.0,Flanders,Limburg,MAASEIK,3680,5.7824195,51.0959782,HOUSE,HOUSE,266500.0,3.0,180.0,unknown,,None,0,0.0,0,0.0,0,2,None,GOOD,unknown,D,319,None,1.0,Limburg,Flanders,1480.56
237,https://www.immoweb.be/en/classified/house/for-sale/maaseik/3680/11172815,11172815.0,Flanders,Limburg,MAASEIK,3680,5.7821181,51.0960297,HOUSE,HOUSE,269500.0,3.0,180.0,unknown,,None,0,0.0,0,0.0,318,2,None,GOOD,unknown,D,311,None,1.0,Limburg,Flanders,1497.22
238,https://www.immoweb.be/en/classified/house/for-sale/maaseik/3680/11172814,11172814.0,Flanders,Limburg,MAASEIK,3680,5.7821181,51.0960297,HOUSE,HOUSE,271000.0,3.0,180.0,unknown,,None,0,0.0,0,0.0,0,2,None,GOOD,unknown,C,291,None,1.0,Limburg,Flanders,1505.56
239,https://www.immoweb.be/en/classified/apartment/for-sale/sint-pieters-leeuw/1600/11172812,11172812.0,Flanders,Flemish Brabant,Sint-Pieters-Leeuw,1600,4.2856758,50.7915154,APARTMENT,APARTMENT,299000.0,2.0,90.0,unknown,0.0,None,1,0.0,0,0.0,Nan,2,False,unknown,GAS,C,210,None,None,Flemish Brabant,Flanders,3322.22
240,https://www.immoweb.be/en/classified/house/for-sale/drogenbos/1620/11172811,11172811.0,Flanders,Flemish Brabant,Drogenbos,1620,None,None,HOUSE,HOUSE,315000.0,3.0,136.0,SEMI_EQUIPPED,0.0,None,1,10.0,0,0.0,55,2,False,TO_RENOVATE,unknown,C,277,None,None,Flemish Brabant,Flanders,2316.18
241,https://www.immoweb.be/en/classified/house/for-sale/antwerpen/2020/11172810,11172810.0,Flanders,Antwerp,Antwerpen,2020,4.3962011,51.1911295,HOUSE,HOUSE,495000.0,4.0,225.0,unknown,0.0,None,1,0.0,0,0.0,120,2,False,unknown,GAS,C,274,None,None,Antwerpen,Flanders,2200.0
242,https://www.immoweb.be/en/classified/house/for-sale/courcelles/6180/11172809,11172809.0,Wallonie,Hainaut,Courcelles,6180,None,None,HOUSE,HOUSE,329000.0,5.0,150.0,USA_SEMI_EQUIPPED,0.0,None,1,0.0,0,0.0,0,3,None,TO_BE_DONE_UP,unknown,D,334,None,None,Hainaut,Wallonie,2193.33
243,https://www.immoweb.be/en/classified/apartment/for-sale/auderghem/1160/11147883,11147883.0,Brussels,Brussels,Auderghem,1160,4.4103857,50.823161,APARTMENT,APARTMENT,290000.0,2.0,80.0,INSTALLED,0.0,None,1,7.0,0,0.0,Nan,2,False,GOOD,GAS,D,190,None,1.0,Brussels,Bruxelles,3625.0
244,https://www.immoweb.be/en/classified/apartment/for-sale/nivelles/1400/11148338,11148338.0,Wallonie,Walloon Brabant,NIVELLES,1400,4.3382214,50.6028831,APARTMENT,APARTMENT,330000.0,2.0,82.0,INSTALLED,,None,1,7.0,0,0.0,Nan,4,None,AS_NEW,GAS,B,93,None,1.0,Walloon Brabant,Wallonie,4024.39
245,https://www.immoweb.be/en/classified/apartment/for-sale/koekelberg/1081/11171393,11171393.0,Brussels,Brussels,Koekelberg,1081,4.3268304,50.8670954,APARTMENT,APARTMENT,249000.0,2.0,91.0,INSTALLED,,None,0,0.0,0,0.0,Nan,2,None,unknown,GAS,F,298,None,None,Brussels,Bruxelles,2736.26
246,https://www.immoweb.be/en/classified/apartment/for-sale/mortsel/2640/11171325,11171325.0,Flanders,Antwerp,Mortsel,2640,4.4528653,51.1693471,APARTMENT,APARTMENT,257500.0,2.0,85.0,INSTALLED,0.0,-1.0,1,6.0,1,0.0,0,2,None,GOOD,GAS,C,284,None,1.0,Antwerpen,Flanders,3029.41
247,https://www.immoweb.be/en/classified/ground-floor/for-sale/etterbeek/1040/11169589,11169589.0,Brussels,Brussels,Etterbeek,1040,4.3836584,50.82801,APARTMENT,GROUND_FLOOR,289000.0,1.0,92.0,HYPER_EQUIPPED,,None,0,0.0,0,0.0,Nan,2,False,GOOD,GAS,G,373,None,None,Brussels,Bruxelles,3141.3
248,https://www.immoweb.be/en/classified/apartment/for-sale/bruxelles/1000/11171304,11171304.0,Brussels,Brussels,BRUXELLES,1000,4.3838131,50.8185931,APARTMENT,APARTMENT,375000.0,2.0,110.0,INSTALLED,,-1.0,0,0.0,0,0.0,Nan,2,None,TO_BE_DONE_UP,GAS,E,234,None,None,Brussels,Bruxelles,3409.09
249,https://www.immoweb.be/en/classified/apartment/for-sale/ixelles/1050/11171284,11171284.0,Brussels,Brussels,Ixelles,1050,4.3838131,50.8185931,APARTMENT,APARTMENT,375000.0,2.0,110.0,INSTALLED,,-1.0,0,0.0,0,0.0,Nan,2,None,TO_BE_DONE_UP,GAS,E,234,None,None,Brussels,Bruxelles,3409.09
250,https://www.immoweb.be/en/classified/apartment/for-sale/brussels-city/1000/11169559,11169559.0,Brussels,Brussels,Brussels City,1000,4.3830621,50.8461345,APARTMENT,APARTMENT,415000.0,2.0,105.0,SEMI_EQUIPPED,,None,0,0.0,0,0.0,Nan,2,None,TO_BE_DONE_UP,GAS,F,340,None,1.0,Brussels,Bruxelles,3952.38
251,https://www.immoweb.be/en/classified/apartment/for-sale/ixelles/1050/11170368,11170368.0,Brussels,Brussels,Ixelles,1050,4.3775287,50.8153991,APARTMENT,APARTMENT,780000.0,2.0,150.0,INSTALLED,,-1.0,0,0.0,0,0.0,Nan,2,None,JUST_RENOVATED,GAS,E,236,None,1.0,Brussels,Bruxelles,5200.0
252,https://www.immoweb.be/en/classified/flat-studio/for-sale/leuven/3000/11153495,11153495.0,Flanders,Flemish Brabant,Leuven,3000,4.6918041,50.8878729,APARTMENT,FLAT_STUDIO,155000.0,0.0,16.0,INSTALLED,0.0,None,1,4.0,0,0.0,0,4,None,AS_NEW,GAS,D,331,None,None,Flemish Brabant,Flanders,9687.5
253,https://www.immoweb.be/en/classified/kot/for-sale/bruxelles/1000/11137657,11137657.0,Brussels,Brussels,Bruxelles,1000,4.374468,50.8161189,APARTMENT,KOT,216500.0,0.0,24.0,INSTALLED,1.0,None,0,0.0,0,0.0,Nan,2,False,AS_NEW,GAS,B,50,None,None,Brussels,Bruxelles,9020.83
254,https://www.immoweb.be/en/classified/apartment/for-sale/saint-gilles/1060/11153802,11153802.0,Brussels,Brussels,SAINT-GILLES,1060,4.3356801,50.8319424,APARTMENT,APARTMENT,220000.0,2.0,70.0,SEMI_EQUIPPED,,None,0,0.0,0,0.0,Nan,2,False,GOOD,GAS,E,256,None,None,Brussels,Bruxelles,3142.86
255,https://www.immoweb.be/en/classified/kot/for-sale/bruxelles/1000/11030892,11030892.0,Brussels,Brussels,Bruxelles,1000,4.374468,50.8161189,APARTMENT,KOT,223500.0,0.0,26.0,INSTALLED,1.0,None,0,0.0,0,0.0,Nan,2,False,AS_NEW,GAS,B,50,None,None,Brussels,Bruxelles,8596.15
256,https://www.immoweb.be/en/classified/apartment/for-sale/saint-ghislain/7333/10209483,10209483.0,Wallonie,Hainaut,Saint-Ghislain,7333,3.8056615,50.4669358,APARTMENT,APARTMENT,230455.0,2.0,97.0,NOT_INSTALLED,0.0,None,1,30.0,0,0.0,Nan,2,None,AS_NEW,GAS,A,85,109.0,None,Hainaut,Wallonie,2375.82
257,https://www.immoweb.be/en/classified/apartment/for-sale/saint-ghislain/7333/10566159,10566159.0,Wallonie,Hainaut,Saint-Ghislain,7333,3.805533,50.4669516,APARTMENT,APARTMENT,234455.0,2.0,115.0,NOT_INSTALLED,0.0,None,1,7.0,0,0.0,Nan,2,None,AS_NEW,GAS,A,56,109.0,None,Hainaut,Wallonie,2038.74
258,https://www.immoweb.be/en/classified/flat-studio/for-sale/woluwe-saint-lambert/1200/11050524,11050524.0,Brussels,Brussels,Woluwe-Saint-Lambert,1200,4.4408888,50.8515792,APARTMENT,FLAT_STUDIO,245000.0,0.0,40.0,USA_HYPER_EQUIPPED,0.0,None,0,0.0,0,0.0,Nan,2,False,AS_NEW,GAS,B,77,133.0,133.0,Brussels,Bruxelles,6125.0
259,https://www.immoweb.be/en/classified/apartment/for-sale/hoboken/2660/11153901,11153901.0,Flanders,Antwerp,HOBOKEN,2660,4.3602193,51.1825491,APARTMENT,APARTMENT,249900.0,2.0,100.0,INSTALLED,,None,1,10.0,0,0.0,Nan,2,None,AS_NEW,GAS,A,96,None,1.0,Antwerpen,Flanders,2499.0
260,https://www.immoweb.be/en/classified/apartment/for-sale/anderlecht/1070/11115396,11115396.0,Brussels,Brussels,Anderlecht,1070,4.3164317,50.8296128,APARTMENT,APARTMENT,250000.0,1.0,66.0,USA_HYPER_EQUIPPED,,None,1,0.0,0,0.0,Nan,3,None,AS_NEW,GAS,A,30,None,None,Brussels,Bruxelles,3787.88
261,https://www.immoweb.be/en/classified/apartment/for-sale/uccle/1180/11155334,11155334.0,Brussels,Brussels,Uccle,1180,4.3266107,50.7960701,APARTMENT,APARTMENT,250000.0,2.0,74.0,USA_HYPER_EQUIPPED,0.0,None,0,0.0,0,0.0,Nan,2,False,GOOD,GAS,G,618,None,None,Brussels,Bruxelles,3378.38
262,https://www.immoweb.be/en/classified/flat-studio/for-sale/evere/1140/10956596,10956596.0,Brussels,Brussels,Evere,1140,4.3924799,50.8789854,APARTMENT,FLAT_STUDIO,259000.0,1.0,55.0,USA_HYPER_EQUIPPED,0.0,None,0,0.0,0,0.0,Nan,3,None,AS_NEW,SOLAR,B,46,None,17.0,Brussels,Bruxelles,4709.09
263,https://www.immoweb.be/en/classified/flat-studio/for-sale/woluwe-saint-lambert/1200/10946836,10946836.0,Brussels,Brussels,Woluwe-Saint-Lambert,1200,4.4408888,50.8515792,APARTMENT,FLAT_STUDIO,264000.0,0.0,50.0,USA_HYPER_EQUIPPED,0.0,None,0,0.0,0,0.0,Nan,2,False,AS_NEW,GAS,B,95,None,None,Brussels,Bruxelles,5280.0
264,https://www.immoweb.be/en/classified/flat-studio/for-sale/evere/1140/11075591,11075591.0,Brussels,Brussels,Evere,1140,4.3924799,50.8789854,APARTMENT,FLAT_STUDIO,269000.0,1.0,55.0,USA_SEMI_EQUIPPED,0.0,None,0,0.0,0,0.0,Nan,3,None,AS_NEW,SOLAR,B,47,None,17.0,Brussels,Bruxelles,4890.91
265,https://www.immoweb.be/en/classified/apartment/for-sale/uccle/1180/11155100,11155100.0,Brussels,Brussels,Uccle,1180,4.3248264,50.7830269,APARTMENT,APARTMENT,275000.0,1.0,55.0,SEMI_EQUIPPED,0.0,None,1,10.0,0,0.0,Nan,2,False,AS_NEW,GAS,E,234,1.0,None,Brussels,Bruxelles,5000.0
266,https://www.immoweb.be/en/classified/apartment/for-sale/evere/1140/11154987,11154987.0,Brussels,Brussels,Evere,1140,4.4045875,50.8726595,APARTMENT,APARTMENT,279000.0,3.0,93.0,INSTALLED,0.0,None,1,9.0,0,0.0,Nan,2,False,GOOD,GAS,E,241,1.0,1.0,Brussels,Bruxelles,3000.0
267,https://www.immoweb.be/en/classified/apartment/for-sale/wavre/1300/10955991,10955991.0,Wallonie,Walloon Brabant,Wavre,1300,4.605968,50.7148716,APARTMENT,APARTMENT,298000.0,1.0,83.0,HYPER_EQUIPPED,0.0,None,0,0.0,0,0.0,Nan,3,None,AS_NEW,GAS,B,114,12.0,None,Walloon Brabant,Wallonie,3590.36
268,https://www.immoweb.be/en/classified/house/for-sale/beyne-heusay/4610/11174674,11174674.0,Wallonie,Liège,BEYNE-HEUSAY,4610,5.6511714,50.6235833,HOUSE,HOUSE,195000.0,3.0,120.0,SEMI_EQUIPPED,,None,1,40.0,0,0.0,102,2,None,TO_BE_DONE_UP,GAS,E,374,None,None,Liège,Wallonie,1625.0
269,https://www.immoweb.be/en/classified/house/for-sale/halen/3545/11174670,11174670.0,Flanders,Limburg,Halen,3545,5.0638121,50.927081,HOUSE,HOUSE,235000.0,2.0,177.0,unknown,0.0,None,0,0.0,0,0.0,983,4,False,unknown,GAS,D,368,None,1.0,Limburg,Flanders,1327.68
270,https://www.immoweb.be/en/classified/house/for-sale/vichte/8570/11174668,11174668.0,Flanders,West Flanders,Vichte,8570,None,None,HOUSE,HOUSE,383500.0,3.0,126.0,unknown,,None,1,0.0,0,0.0,400,3,None,unknown,unknown,Nan,Nan,None,1.0,West Flanders,Flanders,3043.65
271,https://www.immoweb.be/en/classified/apartment/for-sale/gavere/9890/11164655,11164655.0,Flanders,East Flanders,Gavere,9890,3.679605,50.9284071,APARTMENT,APARTMENT,269700.0,1.0,76.0,HYPER_EQUIPPED,0.0,None,1,11.0,0,0.0,0,4,None,AS_NEW,GAS,A,1,1.0,1.0,East Flanders,Flanders,3548.68
272,https://www.immoweb.be/en/classified/apartment/for-sale/gavere/9890/11164654,11164654.0,Flanders,East Flanders,Gavere,9890,3.679605,50.9284071,APARTMENT,APARTMENT,275450.0,1.0,76.0,HYPER_EQUIPPED,0.0,None,1,11.0,0,0.0,0,4,False,AS_NEW,GAS,A,1,1.0,1.0,East Flanders,Flanders,3624.34
273,https://www.immoweb.be/en/classified/apartment/for-sale/gavere/9890/11164648,11164648.0,Flanders,East Flanders,Gavere,9890,3.679605,50.9284071,APARTMENT,APARTMENT,373650.0,2.0,126.0,HYPER_EQUIPPED,0.0,None,1,11.0,0,0.0,0,4,False,AS_NEW,GAS,A,1,1.0,1.0,East Flanders,Flanders,2965.48
274,https://www.immoweb.be/en/classified/apartment/for-sale/gavere/9890/11164652,11164652.0,Flanders,East Flanders,Gavere,9890,3.679605,50.9284071,APARTMENT,APARTMENT,377150.0,3.0,126.0,HYPER_EQUIPPED,0.0,None,1,11.0,0,0.0,0,4,False,AS_NEW,GAS,A,1,1.0,1.0,East Flanders,Flanders,2993.25
275,https://www.immoweb.be/en/classified/apartment/for-sale/gavere/9890/11164649,11164649.0,Flanders,East Flanders,Gavere,9890,3.679605,50.9284071,APARTMENT,APARTMENT,419760.0,2.0,165.0,HYPER_EQUIPPED,0.0,None,1,11.0,0,0.0,0,4,False,AS_NEW,GAS,A,1,1.0,1.0,East Flanders,Flanders,2544.0
276,https://www.immoweb.be/en/classified/apartment/for-sale/anderlecht/1070/11171513,11171513.0,Brussels,Brussels,Anderlecht,1070,4.3164317,50.8296128,APARTMENT,APARTMENT,352500.0,3.0,119.0,USA_HYPER_EQUIPPED,,None,1,0.0,0,0.0,Nan,3,None,AS_NEW,GAS,A,30,None,None,Brussels,Bruxelles,2962.18
277,https://www.immoweb.be/en/classified/apartment/for-sale/braine-lalleud/1420/11172288,11172288.0,Wallonie,Walloon Brabant,Braine-l'Alleud,1420,4.3551238,50.7115297,APARTMENT,APARTMENT,496150.0,3.0,141.0,USA_HYPER_EQUIPPED,0.0,None,1,16.0,0,0.0,0,3,False,AS_NEW,GAS,A,58,1.0,None,Walloon Brabant,Wallonie,3518.79
278,https://www.immoweb.be/en/classified/apartment/for-sale/liege/4000/11174098,11174098.0,Wallonie,Liège,Liège,4000,5.5767209,50.6226771,APARTMENT,APARTMENT,179000.0,2.0,84.0,INSTALLED,0.0,None,1,6.0,0,0.0,0,3,False,GOOD,GAS,B,125,None,None,Liège,Wallonie,2130.95
279,https://www.immoweb.be/en/classified/apartment/for-sale/gent/9000/11174007,11174007.0,Flanders,East Flanders,Gent,9000,3.7106841,51.0551773,APARTMENT,APARTMENT,356500.0,1.0,91.0,USA_HYPER_EQUIPPED,1.0,None,1,16.0,0,0.0,0,2,False,AS_NEW,GAS,A,59.81,1.0,None,East Flanders,Flanders,3917.58
280,https://www.immoweb.be/en/classified/triplex/for-sale/watermael-boitsfort/1170/11173886,11173886.0,Brussels,Brussels,Watermael-Boitsfort,1170,4.4115707,50.7997888,APARTMENT,TRIPLEX,650000.0,5.0,192.0,HYPER_EQUIPPED,,None,1,5.0,0,0.0,Nan,3,False,AS_NEW,GAS,E,260,1.0,1.0,Brussels,Bruxelles,3385.42
281,https://www.immoweb.be/en/classified/house/for-sale/lendelede/8860/11175493,11175493.0,Flanders,West Flanders,Lendelede,8860,None,None,HOUSE,HOUSE,300000.0,2.0,140.0,unknown,,None,0,0.0,1,60.0,161,2,None,GOOD,GAS,C,211,3.0,3.0,West Flanders,Flanders,2142.86
282,https://www.immoweb.be/en/classified/house/for-sale/kapellen/2950/11102764,11102764.0,Flanders,Antwerp,Kapellen,2950,None,None,HOUSE,HOUSE,350000.0,3.0,164.0,HYPER_EQUIPPED,,-1.0,1,26.0,1,200.0,342,2,None,GOOD,GAS,B,178,2.0,2.0,Antwerpen,Flanders,2134.15
283,https://www.immoweb.be/en/classified/apartment/for-sale/borgerhout/2140/11175490,11175490.0,Flanders,Antwerp,Borgerhout,2140,4.4528116,51.2200806,APARTMENT,APARTMENT,189000.0,3.0,110.0,INSTALLED,,-1.0,1,17.0,0,0.0,0,2,None,GOOD,GAS,B,164,None,None,Antwerpen,Flanders,1718.18
284,https://www.immoweb.be/en/classified/house/for-sale/jabbeke/8490/11175488,11175488.0,Flanders,West Flanders,Jabbeke,8490,3.0932421,51.1819223,HOUSE,HOUSE,285000.0,4.0,134.0,unknown,,None,0,0.0,0,0.0,243,4,None,GOOD,GAS,F,576,None,1.0,West Flanders,Flanders,2126.87
285,https://www.immoweb.be/en/classified/town-house/for-sale/brugge/8000/11175487,11175487.0,Flanders,West Flanders,Brugge,8000,3.2126022,51.2179643,HOUSE,TOWN_HOUSE,425000.0,3.0,175.0,unknown,,None,0,0.0,0,0.0,102,2,None,GOOD,GAS,C,231,3.0,None,West Flanders,Flanders,2428.57
286,https://www.immoweb.be/en/classified/apartment/for-sale/massemen/9230/11175482,11175482.0,Flanders,East Flanders,Massemen,9230,3.8734909,50.9808891,APARTMENT,APARTMENT,199000.0,1.0,70.0,unknown,,None,1,0.0,0,0.0,Nan,2,None,GOOD,GAS,B,149,None,None,East Flanders,Flanders,2842.86
287,https://www.immoweb.be/en/classified/apartment/for-sale/antwerp/2018/11175473,11175473.0,Flanders,Antwerp,Antwerp,2018,None,None,APARTMENT,APARTMENT,350000.0,2.0,120.0,NOT_INSTALLED,,-1.0,0,0.0,0,0.0,0,2,None,TO_RENOVATE,GAS,D,321,None,None,Antwerpen,Flanders,2916.67
288,https://www.immoweb.be/en/classified/house/for-sale/melsbroek/1820/11175472,11175472.0,Flanders,Flemish Brabant,MELSBROEK,1820,4.4784625,50.9148276,HOUSE,HOUSE,569000.0,5.0,230.0,INSTALLED,,-1.0,1,35.0,1,395.0,705,3,None,JUST_RENOVATED,GAS,B,144,3.0,2.0,Flemish Brabant,Flanders,2473.91
289,https://www.immoweb.be/en/classified/apartment/for-sale/bonheiden/2820/11175471,11175471.0,Flanders,Antwerp,Bonheiden,2820,4.5272426,51.0356479,APARTMENT,APARTMENT,312000.0,2.0,96.0,INSTALLED,,-1.0,1,14.0,0,0.0,0,4,None,GOOD,GAS,C,245,None,1.0,Antwerpen,Flanders,3250.0
290,https://www.immoweb.be/en/classified/mansion/for-sale/sint-katelijne-waver/2860/11175470,11175470.0,Flanders,Antwerp,SINT-KATELIJNE-WAVER,2860,4.5794487,51.0620241,HOUSE,MANSION,329000.0,3.0,170.0,unknown,,-1.0,1,18.0,1,120.0,307,3,None,TO_RENOVATE,GAS,F,816,None,2.0,Antwerpen,Flanders,1935.29
291,https://www.immoweb.be/en/classified/house/for-sale/zwalm/9630/11175464,11175464.0,Flanders,East Flanders,Zwalm,9630,3.7393585,50.8754096,HOUSE,HOUSE,359000.0,3.0,145.0,HYPER_EQUIPPED,,None,1,0.0,0,0.0,732,4,None,unknown,ELECTRIC,D,398,1.0,1.0,East Flanders,Flanders,2475.86
292,https://www.immoweb.be/en/classified/house/for-sale/melsbroek/1820/11175462,11175462.0,Flanders,Flemish Brabant,MELSBROEK,1820,4.4784625,50.9148276,HOUSE,HOUSE,569000.0,5.0,230.0,INSTALLED,,-1.0,1,35.0,1,395.0,0,3,None,JUST_RENOVATED,GAS,B,144,3.0,2.0,Flemish Brabant,Flanders,2473.91
293,https://www.immoweb.be/en/classified/house/for-sale/sinaai/9112/11175460,11175460.0,Flanders,East Flanders,SINAAI,9112,4.0421439,51.1532875,HOUSE,HOUSE,675000.0,3.0,382.0,unknown,,-1.0,1,23.0,1,43.0,0,2,None,unknown,unknown,A,20,None,None,East Flanders,Flanders,1767.02
294,https://www.immoweb.be/en/classified/house/for-sale/antwerp/2018/11175457,11175457.0,Flanders,Antwerp,Antwerp,2018,4.3964095,51.2022591,HOUSE,HOUSE,649000.0,3.0,180.0,INSTALLED,,-1.0,1,39.0,1,32.0,115,2,None,GOOD,GAS,B,179,None,None,Antwerpen,Flanders,3605.56
295,https://www.immoweb.be/en/classified/apartment/for-sale/antwerp/2018/11175456,11175456.0,Flanders,Antwerp,Antwerp,2018,4.4115574,51.2008528,APARTMENT,APARTMENT,425000.0,3.0,157.0,unknown,,-1.0,0,0.0,0,0.0,0,2,None,unknown,GAS,B,183,None,1.0,Antwerpen,Flanders,2707.01
296,https://www.immoweb.be/en/classified/mixed-use-building/for-sale/sint-niklaas/9100/11175455,11175455.0,Flanders,East Flanders,SINT-NIKLAAS,9100,4.141775,51.1655973,HOUSE,MIXED_USE_BUILDING,349000.0,1.0,179.0,INSTALLED,,-1.0,0,0.0,0,0.0,0,2,None,unknown,GAS,B,166,None,None,East Flanders,Flanders,1949.72
297,https://www.immoweb.be/en/classified/apartment/for-sale/sint-niklaas/9100/11175452,11175452.0,Flanders,East Flanders,SINT-NIKLAAS,9100,4.141775,51.1655973,APARTMENT,APARTMENT,349000.0,1.0,179.0,INSTALLED,,-1.0,0,0.0,0,0.0,0,2,None,unknown,GAS,B,166,None,None,East Flanders,Flanders,1949.72
298,https://www.immoweb.be/en/classified/house/for-sale/edegem/2650/11175451,11175451.0,Flanders,Antwerp,EDEGEM,2650,4.4260358,51.1608706,HOUSE,HOUSE,399000.0,3.0,198.0,HYPER_EQUIPPED,,None,1,50.0,0,0.0,280,3,None,TO_BE_DONE_UP,GAS,C,214,4.0,None,Antwerpen,Flanders,2015.15
299,https://www.immoweb.be/en/classified/apartment/for-sale/edegem/2650/11175450,11175450.0,Flanders,Antwerp,EDEGEM,2650,4.4260358,51.1608706,APARTMENT,APARTMENT,399000.0,3.0,198.0,HYPER_EQUIPPED,,None,1,50.0,0,0.0,Nan,3,None,TO_BE_DONE_UP,GAS,C,214,4.0,None,Antwerpen,Flanders,2015.15
300,https://www.immoweb.be/en/classified/house/for-sale/maldegem/9990/11175433,11175433.0,Flanders,East Flanders,Maldegem,9990,3.4484096,51.2289226,HOUSE,HOUSE,445000.0,4.0,243.0,INSTALLED,0.0,None,1,30.0,1,722.0,722,3,False,GOOD,FUELOIL,C,236,3.0,None,East Flanders,Flanders,1831.28
301,https://www.immoweb.be/en/classified/house/for-sale/deurne/2100/11036761,11036761.0,Flanders,Antwerp,Deurne,2100,4.4729589,51.2238564,HOUSE,HOUSE,269000.0,2.0,157.0,INSTALLED,,-1.0,1,23.0,0,0.0,145,2,None,TO_RENOVATE,GAS,F,772,None,None,Antwerpen,Flanders,1713.38
302,https://www.immoweb.be/en/classified/apartment/for-sale/brussel/1000/11175432,11175432.0,Brussels,Brussels,Brussel,1000,4.3529321,50.8476358,APARTMENT,APARTMENT,425000.0,1.0,60.0,USA_HYPER_EQUIPPED,1.0,None,1,26.0,0,0.0,Nan,2,False,JUST_RENOVATED,GAS,D,167,None,None,Brussels,Bruxelles,7083.33
303,https://www.immoweb.be/en/classified/house/for-sale/kluisbergen/9690/11175427,11175427.0,Flanders,East Flanders,Kluisbergen,9690,3.5133465,50.7824193,HOUSE,HOUSE,245000.0,3.0,185.0,SEMI_EQUIPPED,,-1.0,1,0.0,0,0.0,750,3,None,TO_RENOVATE,FUELOIL,F,586,None,2.0,East Flanders,Flanders,1324.32
304,https://www.immoweb.be/en/classified/penthouse/for-sale/herent/3020/11175414,11175414.0,Flanders,Flemish Brabant,HERENT,3020,4.6770869,50.9072768,APARTMENT,PENTHOUSE,525000.0,3.0,166.0,unknown,,None,1,0.0,0,0.0,Nan,4,None,unknown,unknown,A,16,1.0,None,Flemish Brabant,Flanders,3162.65
305,https://www.immoweb.be/en/classified/house/for-sale/overijse/3090/11175409,11175409.0,Flanders,Flemish Brabant,OVERIJSE,3090,None,None,HOUSE,HOUSE,995000.0,4.0,570.0,HYPER_EQUIPPED,,None,1,0.0,0,0.0,7607,4,None,GOOD,GAS,B,135,None,2.0,Flemish Brabant,Flanders,1745.61
306,https://www.immoweb.be/en/classified/house/for-sale/marcinelle/6001/10959762,10959762.0,Wallonie,Hainaut,MARCINELLE,6001,None,None,HOUSE,HOUSE,495000.0,7.0,758.0,unknown,,2.0,1,50.0,1,2700.0,5760,4,None,TO_BE_DONE_UP,GAS,C,245,3.0,3.0,Hainaut,Wallonie,653.03
307,https://www.immoweb.be/en/classified/apartment/for-sale/molenbeek-saint-jean/1080/10952437,10952437.0,Brussels,Brussels,Molenbeek-Saint-Jean,1080,4.3163839,50.8588303,APARTMENT,APARTMENT,190000.0,2.0,80.0,INSTALLED,0.0,None,1,2.0,0,0.0,Nan,2,False,GOOD,FUELOIL,E,214,None,1.0,Brussels,Bruxelles,2375.0
308,https://www.immoweb.be/en/classified/apartment/for-sale/molenbeek-saint-jean/1080/10931719,10931719.0,Brussels,Brussels,Molenbeek-Saint-Jean,1080,4.2974796,50.8482903,APARTMENT,APARTMENT,195000.0,2.0,81.0,unknown,0.0,None,0,0.0,0,0.0,Nan,2,False,TO_BE_DONE_UP,GAS,F,311,None,1.0,Brussels,Bruxelles,2407.41
309,https://www.immoweb.be/en/classified/apartment/for-sale/anderlecht/1070/10437960,10437960.0,Brussels,Brussels,Anderlecht,1070,4.2863533,50.8195132,APARTMENT,APARTMENT,199000.0,1.0,60.0,HYPER_EQUIPPED,0.0,None,1,3.0,0,0.0,Nan,2,False,AS_NEW,GAS,C,137,None,None,Brussels,Bruxelles,3316.67
310,https://www.immoweb.be/en/classified/apartment/for-sale/antwerp/2020/11020815,11020815.0,Flanders,Antwerp,Antwerp,2020,4.3987843,51.1914713,APARTMENT,APARTMENT,210000.0,1.0,55.0,unknown,,None,1,0.0,0,0.0,0,2,None,GOOD,GAS,B,139,None,None,Antwerpen,Flanders,3818.18
311,https://www.immoweb.be/en/classified/apartment/for-sale/bruxelles/1000/11052644,11052644.0,Brussels,Brussels,Bruxelles,1000,4.3492529,50.8344993,APARTMENT,APARTMENT,225000.0,1.0,59.0,SEMI_EQUIPPED,0.0,None,0,0.0,0,0.0,Nan,2,False,GOOD,GAS,G,396,None,None,Brussels,Bruxelles,3813.56
312,https://www.immoweb.be/en/classified/apartment/for-sale/dendermonde/9200/10827768,10827768.0,Flanders,East Flanders,DENDERMONDE,9200,4.1014293,51.0241549,APARTMENT,APARTMENT,225000.0,2.0,82.0,INSTALLED,,None,1,40.0,0,0.0,Nan,2,None,JUST_RENOVATED,GAS,B,120,1.0,1.0,East Flanders,Flanders,2743.9
313,https://www.immoweb.be/en/classified/apartment/for-sale/molenbeek-saint-jean/1080/10373856,10373856.0,Brussels,Brussels,Molenbeek-Saint-Jean,1080,4.3199137,50.8582958,APARTMENT,APARTMENT,230000.0,2.0,82.0,unknown,0.0,None,1,3.0,0,0.0,Nan,2,None,GOOD,GAS,D,185,None,None,Brussels,Bruxelles,2804.88
314,https://www.immoweb.be/en/classified/penthouse/for-sale/uccle/1180/10937058,10937058.0,Brussels,Brussels,Uccle,1180,4.3305953,50.8053275,APARTMENT,PENTHOUSE,235000.0,2.0,97.0,unknown,0.0,None,1,10.0,0,0.0,0,2,False,TO_RENOVATE,GAS,G,634,None,None,Brussels,Bruxelles,2422.68
315,https://www.immoweb.be/en/classified/apartment/for-sale/molenbeek-saint-jean/1080/10250928,10250928.0,Brussels,Brussels,Molenbeek-Saint-Jean,1080,4.3168495,50.8611238,APARTMENT,APARTMENT,239000.0,2.0,105.0,INSTALLED,0.0,None,1,4.0,0,0.0,Nan,2,False,AS_NEW,GAS,D,163,None,None,Brussels,Bruxelles,2276.19
316,https://www.immoweb.be/en/classified/apartment/for-sale/antwerp/2060/11103663,11103663.0,Flanders,Antwerp,Antwerp,2060,4.4170893,51.2301643,APARTMENT,APARTMENT,245000.0,1.0,55.0,HYPER_EQUIPPED,,None,1,0.0,0,0.0,Nan,2,None,AS_NEW,GAS,B,120.730003356934,1.0,None,Antwerpen,Flanders,4454.55
317,https://www.immoweb.be/en/classified/apartment/for-sale/schaerbeek/1030/11108348,11108348.0,Brussels,Brussels,Schaerbeek,1030,4.4062194,50.8557946,APARTMENT,APARTMENT,250000.0,1.0,55.0,USA_HYPER_EQUIPPED,,None,1,20.0,0,0.0,Nan,4,None,GOOD,GAS,B,85,None,None,Brussels,Bruxelles,4545.45
318,https://www.immoweb.be/en/classified/apartment/for-sale/forest/1190/11109798,11109798.0,Brussels,Brussels,Forest,1190,4.3246745,50.8138235,APARTMENT,APARTMENT,250000.0,2.0,85.0,INSTALLED,0.0,None,1,6.0,0,0.0,Nan,2,False,GOOD,GAS,G,540,None,1.0,Brussels,Bruxelles,2941.18
319,https://www.immoweb.be/en/classified/apartment/for-sale/schaerbeek/1030/10882878,10882878.0,Brussels,Brussels,Schaerbeek,1030,4.395797,50.8595943,APARTMENT,APARTMENT,260000.0,2.0,95.0,unknown,0.0,None,1,8.0,0,0.0,Nan,2,False,TO_RENOVATE,GAS,C,142,None,None,Brussels,Bruxelles,2736.84
320,https://www.immoweb.be/en/classified/apartment/for-sale/berchem/2600/10515715,10515715.0,Flanders,Antwerp,Berchem,2600,4.4242564,51.1861548,APARTMENT,APARTMENT,260000.0,3.0,95.0,INSTALLED,,-1.0,1,1.0,0,0.0,0,3,None,GOOD,FUELOIL,D,383,None,None,Antwerpen,Flanders,2736.84
321,https://www.immoweb.be/en/classified/apartment/for-sale/auderghem/1160/10616311,10616311.0,Brussels,Brussels,Auderghem,1160,4.4163972,50.8134754,APARTMENT,APARTMENT,262000.0,2.0,75.0,INSTALLED,0.0,None,1,18.0,0,0.0,Nan,4,False,GOOD,GAS,D,202,None,None,Brussels,Bruxelles,3493.33
322,https://www.immoweb.be/en/classified/apartment/for-sale/ganshoren/1083/10955291,10955291.0,Brussels,Brussels,Ganshoren,1083,4.3182457,50.8684517,APARTMENT,APARTMENT,265000.0,2.0,75.0,unknown,0.0,None,1,5.0,0,0.0,Nan,2,False,GOOD,GAS,C,150,None,None,Brussels,Bruxelles,3533.33
323,https://www.immoweb.be/en/classified/apartment/for-sale/woluwe-saint-pierre/1150/10952604,10952604.0,Brussels,Brussels,Woluwe-Saint-Pierre,1150,4.4597326,50.8230596,APARTMENT,APARTMENT,275000.0,2.0,78.0,INSTALLED,0.0,None,1,5.0,0,0.0,Nan,3,False,GOOD,GAS,G,509,None,None,Brussels,Bruxelles,3525.64
324,https://www.immoweb.be/en/classified/apartment/for-sale/middelkerke/8430/10839080,10839080.0,Flanders,West Flanders,Middelkerke,8430,2.8095452,51.1815153,APARTMENT,APARTMENT,280000.0,2.0,73.0,INSTALLED,,-1.0,0,0.0,0,0.0,0,2,True,GOOD,ELECTRIC,E,402,None,None,West Flanders,Flanders,3835.62
325,https://www.immoweb.be/en/classified/triplex/for-sale/schaerbeek/1030/10779151,10779151.0,Brussels,Brussels,Schaerbeek,1030,4.3835492,50.8694309,APARTMENT,TRIPLEX,297000.0,3.0,154.0,unknown,0.0,None,1,1.0,0,0.0,Nan,2,False,TO_RENOVATE,GAS,E,275,None,None,Brussels,Bruxelles,1928.57
326,https://www.immoweb.be/en/classified/apartment/for-sale/etterbeek/1040/11091511,11091511.0,Brussels,Brussels,Etterbeek,1040,4.3987917,50.8290209,APARTMENT,APARTMENT,300000.0,2.0,70.0,USA_INSTALLED,0.0,None,0,0.0,0,0.0,Nan,2,False,GOOD,GAS,D,166,None,None,Brussels,Bruxelles,4285.71
327,https://www.immoweb.be/en/classified/duplex/for-sale/saint-gilles/1060/10953327,10953327.0,Brussels,Brussels,Saint-Gilles,1060,4.3386841,50.8309619,APARTMENT,DUPLEX,325000.0,3.0,160.0,USA_INSTALLED,,None,1,0.0,0,0.0,Nan,2,None,GOOD,GAS,E,274,None,None,Brussels,Bruxelles,2031.25
328,https://www.immoweb.be/en/classified/apartment/for-sale/forest/1190/11062102,11062102.0,Brussels,Brussels,Forest,1190,4.3346435,50.813238,APARTMENT,APARTMENT,325000.0,2.0,91.0,INSTALLED,0.0,None,0,0.0,0,0.0,Nan,2,False,TO_BE_DONE_UP,GAS,C,138,None,None,Brussels,Bruxelles,3571.43
329,https://www.immoweb.be/en/classified/duplex/for-sale/strombeek-bever/1853/10828188,10828188.0,Flanders,Flemish Brabant,Strombeek-Bever,1853,4.3466435,50.9087109,APARTMENT,DUPLEX,335000.0,3.0,128.0,unknown,,None,0,0.0,0,0.0,Nan,2,None,AS_NEW,GAS,C,218,None,None,Flemish Brabant,Flanders,2617.19
330,https://www.immoweb.be/en/classified/apartment/for-sale/forest/1190/10986163,10986163.0,Brussels,Brussels,Forest,1190,4.3244681,50.8137348,APARTMENT,APARTMENT,370000.0,2.0,107.0,INSTALLED,0.0,None,1,11.0,0,0.0,Nan,2,None,GOOD,GAS,D,165,2.0,None,Brussels,Bruxelles,3457.94
331,https://www.immoweb.be/en/classified/apartment/for-sale/waregem/8790/11098537,11098537.0,Flanders,West Flanders,WAREGEM,8790,3.4490004,50.8777009,APARTMENT,APARTMENT,375000.0,2.0,172.0,INSTALLED,,None,1,25.0,0,0.0,Nan,2,None,GOOD,GAS,B,162,None,2.0,West Flanders,Flanders,2180.23
332,https://www.immoweb.be/en/classified/apartment/for-sale/middelkerke/8430/10654929,10654929.0,Flanders,West Flanders,Middelkerke,8430,2.8145066,51.1872821,APARTMENT,APARTMENT,420000.0,2.0,82.0,SEMI_EQUIPPED,1.0,-1.0,1,0.0,0,0.0,Nan,2,None,GOOD,ELECTRIC,D,378,None,None,West Flanders,Flanders,5121.95
333,https://www.immoweb.be/en/classified/apartment/for-sale/leuven/3000/11106202,11106202.0,Flanders,Flemish Brabant,LEUVEN,3000,4.6840964,50.880141,APARTMENT,APARTMENT,455000.0,2.0,101.0,unknown,1.0,None,1,7.0,0,0.0,Nan,2,None,GOOD,GAS,B,108,None,1.0,Flemish Brabant,Flanders,4504.95
334,https://www.immoweb.be/en/classified/house/for-sale/kruibeke/9150/11026764,11026764.0,Flanders,East Flanders,Kruibeke,9150,4.3061236,51.1759368,HOUSE,HOUSE,199000.0,2.0,105.0,INSTALLED,,None,1,10.0,1,105.0,210,2,None,TO_BE_DONE_UP,GAS,D,378,None,None,East Flanders,Flanders,1895.24
335,https://www.immoweb.be/en/classified/house/for-sale/steendorp/9140/10979527,10979527.0,Flanders,East Flanders,Steendorp,9140,4.2712829,51.125525,HOUSE,HOUSE,224000.0,3.0,212.0,INSTALLED,,None,1,16.0,1,100.0,136,2,None,TO_RENOVATE,GAS,E,479,None,None,East Flanders,Flanders,1056.6
336,https://www.immoweb.be/en/classified/duplex/for-sale/westerlo/2260/11171702,11171702.0,Flanders,Antwerp,Westerlo,2260,4.915381,51.105423,APARTMENT,DUPLEX,340000.0,2.0,101.0,unknown,,None,1,0.0,0,0.0,Nan,3,None,AS_NEW,GAS,Nan,Nan,1.0,1.0,Antwerpen,Flanders,3366.34
337,https://www.immoweb.be/en/classified/house/for-sale/ninove/9400/11171701,11171701.0,Flanders,East Flanders,Ninove,9400,4.0555736,50.8562916,HOUSE,HOUSE,215000.0,4.0,233.0,SEMI_EQUIPPED,0.0,None,1,0.0,0,0.0,300,3,False,TO_RENOVATE,unknown,F,1076,1.0,1.0,East Flanders,Flanders,922.75
338,https://www.immoweb.be/en/classified/apartment/for-sale/aarschot/3200/11171698,11171698.0,Flanders,Flemish Brabant,Aarschot,3200,4.4891375,51.0272146,APARTMENT,APARTMENT,449000.0,2.0,99.0,HYPER_EQUIPPED,0.0,None,1,17.0,0,0.0,0,2,None,AS_NEW,unknown,Nan,Nan,1.0,None,Flemish Brabant,Flanders,4535.35
339,https://www.immoweb.be/en/classified/bungalow/for-sale/holsbeek/3220/11171697,11171697.0,Flanders,Flemish Brabant,Holsbeek,3220,4.738112,50.9131551,HOUSE,BUNGALOW,795000.0,4.0,264.0,USA_HYPER_EQUIPPED,,None,1,50.0,0,0.0,1638,4,None,GOOD,GAS,C,285,2.0,1.0,Flemish Brabant,Flanders,3011.36
340,https://www.immoweb.be/en/classified/apartment/for-sale/li%C3%A8ge%20grivegn%C3%A9e/4030/11171694,11171694.0,Wallonie,Liège,Liège Grivegnée,4030,5.6105653,50.6303281,APARTMENT,APARTMENT,79900.0,1.0,39.0,unknown,0.0,None,0,0.0,0,0.0,Nan,2,False,GOOD,GAS,E,409,None,None,Liège,Wallonie,2048.72
341,https://www.immoweb.be/en/classified/flat-studio/for-sale/herstal/4040/11096619,11096619.0,Wallonie,Liège,Herstal,4040,5.6143687,50.6562096,APARTMENT,FLAT_STUDIO,90000.0,0.0,30.0,unknown,0.0,None,1,8.0,0,0.0,0,2,False,GOOD,FUELOIL,G,547,None,None,Liège,Wallonie,3000.0
342,https://www.immoweb.be/en/classified/apartment/for-sale/uccle/1180/11171693,11171693.0,Brussels,Brussels,Uccle,1180,4.341169,50.8137658,APARTMENT,APARTMENT,235000.0,1.0,60.0,unknown,0.0,None,0,0.0,0,0.0,Nan,2,False,GOOD,GAS,E,240,None,None,Brussels,Bruxelles,3916.67
343,https://www.immoweb.be/en/classified/house/for-sale/barben%C3%A7on/6500/11171692,11171692.0,Wallonie,Hainaut,Barbençon,6500,4.2843778,50.2216018,HOUSE,HOUSE,170000.0,2.0,109.0,unknown,,None,1,17.0,1,1228.0,1305,4,None,GOOD,WOOD,F,481,1.0,1.0,Hainaut,Wallonie,1559.63
344,https://www.immoweb.be/en/classified/house/for-sale/compogne/6687/11077358,11077358.0,Wallonie,Luxembourg,COMPOGNE,6687,5.6596515,50.5015592,HOUSE,HOUSE,195000.0,5.0,288.0,unknown,0.0,None,1,0.0,0,0.0,400,4,None,TO_RENOVATE,unknown,E,375,None,None,Luxembourg,Wallonie,677.08
345,https://www.immoweb.be/en/classified/apartment/for-sale/knokke-heist/8300/11171687,11171687.0,Flanders,West Flanders,Knokke-Heist,8300,None,None,APARTMENT,APARTMENT,1015000.0,3.0,108.0,unknown,0.0,None,1,0.0,0,0.0,Nan,2,False,AS_NEW,unknown,B,151,None,None,West Flanders,Flanders,9398.15
346,https://www.immoweb.be/en/classified/house/for-sale/geraardsbergen/9500/11171686,11171686.0,Flanders,East Flanders,Geraardsbergen,9500,3.8846007,50.773275,HOUSE,HOUSE,189000.0,2.0,110.0,USA_INSTALLED,0.0,None,1,30.0,1,30.0,80,2,None,GOOD,GAS,C,220,None,None,East Flanders,Flanders,1718.18
347,https://www.immoweb.be/en/classified/apartment/for-sale/schoten/2900/11171679,11171679.0,Flanders,Antwerp,Schoten,2900,4.4872399,51.2512061,APARTMENT,APARTMENT,222000.0,2.0,82.0,SEMI_EQUIPPED,,None,0,0.0,0,0.0,Nan,4,None,TO_RENOVATE,GAS,C,300,1.0,1.0,Antwerpen,Flanders,2707.32
348,https://www.immoweb.be/en/classified/apartment/for-sale/sleidinge/9940/11168791,11168791.0,Flanders,East Flanders,Sleidinge,9940,3.6790739,51.1327884,APARTMENT,APARTMENT,295000.0,1.0,75.0,HYPER_EQUIPPED,0.0,None,1,17.0,0,0.0,Nan,2,False,AS_NEW,unknown,Nan,Nan,1.0,None,East Flanders,Flanders,3933.33
